"Name","ID","State","Network","County","Elevation_ft","Latitude","Longitude","HUC","Date_of_Data","Date_Report_Created","Value_inches","Percent_NRCS_1991_2020_Average","Percent_NRCS_1991_2020_Median","Percent_of_POR_Average","Percent_of_POR_Median","Percent_of_Water_Year_Peak","Percent_of_Average_Water_Year_Peak_POR","Percent_of_Median_Water_Year_Peak_POR","POR_Median_Departure_inches","Percentile_POR","Maximum_Rank_POR","Minimum_Rank_POR","Records_POR","NRCS_1991_2020_Average_inches","NRCS_1991_2020_Median_inches","POR_Average_inches","POR_Median_inches","Minimum_POR_inches","Maximum_POR_inches","Year_of_Minimum_POR","Year_of_Maximum_POR","Number_of_Observations_POR"
"Adin Mtn","301	","California","SNOTEL","Modoc","6190","41.23583","-120.79192","180200021403	","December 9, 2021, end of day ","12-10-2021, 12:14 PM MST","0",,,"0","0","0","0","0","-9","4","23","1","Lowest",,,"9","9","0","23","2014, 2021","1998","24"
"Agua Canyon","907	","Utah","SNOTEL","Kane","8900","37.52217","-112.27118","160300020301	","December 9, 2021, end of day ","12-10-2021, 12:14 PM MST","5",,,"71","83","100","13","14","-1","43","14","10",,,,"7","6","0","23","2014, 2017, 2020, more","2013","24"
"Aiken Lake","4A30P	","British Columbia","Cooperator Snow Sensors","	","3481","56.43333","-125.73333","	","December 9, 2021, end of day ","12-10-2021, 12:14 PM MST",,,,,,,,,,,,,,,,"11","13","0","18","2016","2019","5"
"Albro Lake","916	","Montana","SNOTEL","Madison","8300","45.59723","-111.95902","100200050701	","December 9, 2021, end of day ","12-10-2021, 12:14 PM MST","18",,,"72","82","64","25","26","-4","20","21","6",,,,"25","22","12","45","2002","2013","26"
"Alexander Lake","1267	","Alaska","SNOTEL","Matanuska-Susitna","160","61.74967","-150.88967","190205051106	","December 9, 2021, end of day ","12-10-2021, 12:14 PM MST","23",,,"135","110","92","64","61","2","86","2","6","2nd Highest",,,"17","21","2","24","2016","2020","8"
"Alpine Meadows","908	","Washington","SNOTEL","King","3500","47.77957","-121.69847","171100100501	","December 9, 2021, end of day ","12-10-2021, 12:14 PM MST","14",,,"67","58","100","12","11","-10","29","13","6",,,,"21","24","0","48","2014, 2019","2016","18"
"Althouse","1239	","California","SNOLITE","Del Norte","4970","41.99617","-123.547","171003110302	","December 9, 2021, end of day ","12-10-2021, 12:14 PM MST","0",,,"0","0","0","0","0","-4","29","6","1","Lowest",,,"4","4","0","12","2014, 2015, 2021","2019","8"
"American Beauty","1198	","Nevada","SNOLITE","Elko","7545","40.53373","-115.45768","160401030901	","December 9, 2021, end of day ","12-10-2021, 12:14 PM MST","7",,,"88","88","88","18","18","-1","44","6","4",,,,"8","8","3","13","2015","2013","10"
"American Creek","1189	","Alaska","SNOTEL","Southeast Fairbanks","1050","64.78969","-141.23376","190705050504	","December 9, 2021, end of day ","12-10-2021, 12:14 PM MST","13",,,"130","144","100","59","65","4","80","3","9",,,,"10","9","5","14","2016","2015, 2019","11"
"Anchor River Divide","1062	","Alaska","SNOTEL","Kenai Peninsula","1653","59.85972","-151.315","190203010701	","December 9, 2021, end of day ","12-10-2021, 12:14 PM MST","25",,,"179","179","100","51","50","11","94","2","17","2nd Highest",,,"14","14","1","28","2013","2009","18"
"Anchorage Hillside","1070	","Alaska","SNOTEL","Anchorage","2080","61.11483","-149.66683","190204010601	","December 9, 2021, end of day ","12-10-2021, 12:14 PM MST","26",,,"173","173","96","63","62","11","87","3","14",,,,"15","15","4","30","2014, 2016","2020","16"
"Anchorage Wscmo AP","0280	","Alaska","ACIS","Anchorage","110","61.16666","-150.01666","190204010808	","December 9, 2021, end of day ","12-10-2021, 12:14 PM MST",,,,,,,,,,,,,,,,"7","7","0","21","1995, 2000, 2007, more","1991","68"
"Aneroid Lake #2","302	","Oregon","SNOTEL","Wallowa","7400","45.21328","-117.19258","170601050101	","December 9, 2021, end of day ","12-10-2021, 12:14 PM MST","2",,,"11","12","40","3","3","-14","0","21","1","Lowest",,,"19","16","2","36","2021","2012","21"
"Aniak","2065	","Alaska","SNOTEL","Bethel","80","61.58337","-159.57708","190305020504	","December 9, 2021, end of day ","12-10-2021, 12:14 PM MST","14",,,"200","175","100","64","64","6","100","1","9","Highest",,,"7","8","0","14","2013","2021","9"
"Annie Springs","1000	","Oregon","SNOTEL","Klamath","6010","42.87007","-122.16518","180102030101	","December 9, 2021, end of day ","12-10-2021, 12:14 PM MST","3",,,"12","14","30","3","3","-19","0","22","1","Lowest",,,"25","22","3","58","2021","2001","22"
"Anthony Lake","1245	","Oregon","SNOLITE","Baker","7160","44.9591","-118.22668","170502030503	","December 9, 2021, end of day ","12-10-2021, 12:14 PM MST","6",,,"40","38","100","8","7","-10","12","8","2","2nd Lowest",,,"15","16","5","31","2017","2016","9"
"Apishapa","303	","Colorado","SNOTEL","Huerfano","10000","37.33062","-105.06749","110200060406	","December 9, 2021, end of day ","12-10-2021, 12:14 PM MST","0",,,"0","0","0","0","0","-4","9","22","1","Lowest",,,"6","4","0","18","2000, 2010, 2021","1999","24"
"Arapaho Ridge","1030	","Colorado","SNOTEL","Grand","10960","40.35098","-106.35098","140100010604	","December 9, 2021, end of day ","12-10-2021, 12:14 PM MST","24",,,"83","86","100","31","30","-4","33","13","4",,,,"29","28","5","50","2002","2004","19"
"Arbuckle Mtn","304	","Oregon","SNOTEL","Morrow","5770","45.19085","-119.25392","170702020604	","December 9, 2021, end of day ","12-10-2021, 12:14 PM MST","4",,,"31","40","67","7","7","-6","0","19","1","Lowest",,,"13","10","4","24","2021","2004, 2007, 2010","19"
"Ash Valley","2214	","California","SCAN","Lassen","5097","41.05204","-120.6872","180200021404	","December 9, 2021, end of day ","12-10-2021, 12:14 PM MST","0",,,,,"0","0","0","0","80","2","1","Lowest",,,"0","0","0","1","2017, 2020, 2021, more","2016","6"
"Ashley Divide","1165	","Montana","SNOLITE","Flathead","4820","48.20161","-114.51495","170102080108	","December 9, 2021, end of day ","12-10-2021, 12:14 PM MST",,,,,,,,,,,,,,,,"3","4","1","4","2019","2018, 2020","4"
"Atigun Pass","957	","Alaska","SNOTEL","North Slope","4800","68.12983","-149.47817","190802010102	","December 9, 2021, end of day ","12-10-2021, 12:14 PM MST",,,,,,,,,,,,,,,,"29","31","17","38","2014","2019","13"
"Atlanta Summit","306	","Idaho","SNOTEL","Elmore","7580","43.7569","-115.23907","170501110204	","December 9, 2021, end of day ","12-10-2021, 12:14 PM MST",,,,,,,,,,,,,,,,"30","27","8","53","2008","2012","25"
"Azure","1E08P	","British Columbia","Cooperator Snow Sensors","	","5331","52.58333","-119.71667","	","December 9, 2021, end of day ","12-10-2021, 12:14 PM MST",,,,,,,,,,,,,,,,"54","55","26","81","2000","1999","17"
"Badger Pass","307	","Montana","SNOTEL","Pondera","6900","48.13088","-113.02317","100302010201	","December 9, 2021, end of day ","12-10-2021, 12:14 PM MST","22",,,"73","69","100","24","24","-10","29","16","7",,,,"30","32","0","53","1999","2012","22"
"Baker Butte","308	","Arizona","SNOTEL","Gila","7300","34.4566","-111.40643","150602030206	","December 9, 2021, end of day ","12-10-2021, 12:14 PM MST",,,,,,,,,,,,,,,,"4","1","0","15","2015, 2017, 2020, more","2009","17"
"Baker Butte Smt","1140	","Arizona","SNOTEL","Coconino","7700","34.45547","-111.38272","150602030103	","December 9, 2021, end of day ","12-10-2021, 12:14 PM MST",,,,,,,,,,,,,,,,"7","4","0","22","2014, 2017, 2020, more","2009","12"
"Bald Mtn AM","1240	","Nevada","SNOLITE","Washoe","6720","41.78333","-119.61667","160402040101	","December 9, 2021, end of day ","12-10-2021, 12:14 PM MST","0",,,"0",,"0","0","0","0","75","2","1","Lowest",,,"1","0","0","5","2019, 2020, 2021, more","2018","5"
"Bald Mtn AM OR","447	","Oregon","SNOLITE","Union","6700","45.21158","-117.6626","170601040504	","December 9, 2021, end of day ","12-10-2021, 12:14 PM MST","16",,,"94","100","100","15","15","0","33","3","1","Lowest",,,"17","16","16","18","2020, 2021","2019","4"
"Bald Mtn.","309	","Wyoming","SNOTEL","Big Horn","9380","44.8007","-107.84442","100800100501	","December 9, 2021, end of day ","12-10-2021, 12:14 PM MST",,,,,,,,,,,,,,,,"28","28","11","42","2015","2019","18"
"Baldy","310	","Arizona","SNOTEL","Apache","9125","33.97883","-109.50344","150200010203	","December 9, 2021, end of day ","12-10-2021, 12:14 PM MST","1",,,"20","33","50","2","3","-2","26","15","6",,,,"5","3","0","21","2014, 2015, 2017, more","2009","20"
"Banfield Mountain","311	","Montana","SNOTEL","Lincoln","5600","48.5712","-115.44573","170101011202	","December 9, 2021, end of day ","12-10-2021, 12:14 PM MST","12",,,"67","75","100","19","20","-4","25","16","3",,,,"18","16","5","29","2008","2003","21"
"Banner Summit","312	","Idaho","SNOTEL","Boise","7040","44.30342","-115.23447","170501200202	","December 9, 2021, end of day ","12-10-2021, 12:14 PM MST","17",,,"68","74","94","21","21","-6","29","16","6",,,,"25","23","11","46","2008, 2009","2001","22"
"Bar M","1212	","Arizona","SNOTEL","Coconino","6393","34.86136","-111.60503","150602020601	","December 9, 2021, end of day ","12-10-2021, 12:14 PM MST",,,,,,,,,,,,,,,,"1","0","0","8","2017, 2018, 2020, more","2013","9"
"Barker Lakes","313	","Montana","SNOTEL","Deer Lodge","8250","46.09713","-113.13038","170102010304	","December 9, 2021, end of day ","12-10-2021, 12:14 PM MST","10",,,"48","50","100","16","17","-10","5","19","2","2nd Lowest",,,"21","20","9","36","2002","2009","20"
"Barkerville","1A03P	","British Columbia","Cooperator Snow Sensors","	","4865","53.05","-121.48333","	","December 9, 2021, end of day ","12-10-2021, 12:14 PM MST",,,,,,,,,,,,,,,,"17","18","0","30","2006, 2007","2008","14"
"Barney Creek","1246	","Oregon","SNOLITE","Baker","5830","44.36069","-118.31114","170502020202	","December 9, 2021, end of day ","12-10-2021, 12:14 PM MST","1",,,"17","25","100","3","2","-3","12","8","2","2nd Lowest",,,"6","4","0","14","2014","2016","9"
"Barrow WSO Airport","0546	","Alaska","ACIS","North Slope","30","71.3","-156.78333","190602020203	","December 9, 2021, end of day ","12-10-2021, 12:14 PM MST",,,,,,,,,,,,,,,,"8","8","1","16","1903","1997","88"
"Base Camp","314	","Wyoming","SNOTEL","Teton","7060","43.94019","-110.44544","170401010304	","December 9, 2021, end of day ","12-10-2021, 12:14 PM MST","12",,,"55","52","100","17","18","-11","0","8","1","Lowest",,,"22","23","12","32","2021","2013","8"
"Basin Creek","315	","Montana","SNOTEL","Silver Bow","7180","45.79737","-112.52047","170102010201	","December 9, 2021, end of day ","12-10-2021, 12:14 PM MST","2",,,"18","22","33","5","6","-7","0","19","1","Lowest",,,"11","9","2","24","2021","2013","19"
"Bassoo Peak","1190	","Montana","SNOLITE","Sanders","5150","47.85562","-114.75841","170102120105	","December 9, 2021, end of day ","12-10-2021, 12:14 PM MST",,,,,,,,,,,,,,,,"4","4","2","8","2019","2020","4"
"Bateman","316	","New Mexico","SNOTEL","Rio Arriba","9300","36.51174","-106.31543","130201020901	","December 9, 2021, end of day ","12-10-2021, 12:14 PM MST",,,,,,,,,,,,,,,,"12","13","1","23","2017","2007","20"
"Battle Creek AM","1295	","Idaho","SNOLITE","Owyhee","5720","42.47694","-116.32576","170501040905	","December 9, 2021, end of day ","12-10-2021, 12:14 PM MST",,,,,,,,,,,,,,,,"3","3","0","7","2020","2018","3"
"Battle Mountain","317	","Wyoming","SNOTEL","Carbon","7440","41.05413","-107.26609","140500030109	","December 9, 2021, end of day ","12-10-2021, 12:14 PM MST",,,,,,,,,,,,,,,,"13","15","0","21","2012","2013","17"
"Beagle Springs","318	","Montana","SNOTEL","Beaverhead","8850","44.47147","-112.98191","100200010501	","December 9, 2021, end of day ","12-10-2021, 12:14 PM MST","8",,,"57","57","44","19","18","-6","11","17","1","Lowest",,,"14","14","8","21","2006, 2020, 2021","2009","19"
"Bear Basin","319	","Idaho","SNOTEL","Adams","5350","44.95222","-116.14293","170602100104	","December 9, 2021, end of day ","12-10-2021, 12:14 PM MST","3",,,"21","25","100","5","5","-9","0","22","1","Lowest",,,"14","12","3","30","2021","2001","22"
"Bear Canyon","320	","Idaho","SNOTEL","Custer","7900","43.74367","-113.93797","170402180101	","December 9, 2021, end of day ","12-10-2021, 12:14 PM MST","6",,,"35","40","100","10","10","-9","0","12","1","Lowest",,,"17","15","6","40","2021","2012","12"
"Bear Creek","321	","Nevada","SNOTEL","Elko","8040","41.83384","-115.45278","170501020301	","December 9, 2021, end of day ","12-10-2021, 12:14 PM MST","2",,,"14","15","22","3","3","-11","0","14","1","Lowest",,,"14","13","2","33","2021","2010","14"
"Bear Flat Meadow AM","1291	","Oregon","SNOLITE","Lake","6580","42.41655","-120.47043","171200060105	","December 9, 2021, end of day ","12-10-2021, 12:14 PM MST","0",,,"0","0",,"0","0","-6","0","4","1","Lowest",,,"6","6","0","11","2021","2018","4"
"Bear Grass","1166	","Oregon","SNOTEL","Linn","4720","44.3253","-122.0938","170900040203	","December 9, 2021, end of day ","12-10-2021, 12:14 PM MST","8",,,"42","53","100","7","6","-7","30","8","4",,,,"19","15","0","50","2014, 2015","2016","11"
"Bear Lake","322	","Colorado","SNOTEL","Larimer","9500","40.31176","-105.6467","101900060201	","December 9, 2021, end of day ","12-10-2021, 12:14 PM MST","12",,,"67","67","100","18","18","-6","19","14","4",,,,"18","18","7","28","2020","2019","17"
"Bear Mountain","323	","Idaho","SNOTEL","Bonner","5400","48.30577","-116.07448","170102131202	","December 9, 2021, end of day ","12-10-2021, 12:14 PM MST",,,,,,,,,,,,,,,,"41","42","22","65","2008","2001","19"
"Bear River","1061	","Colorado","SNOTEL","Routt","9080","40.06153","-107.00955","140500010102	","December 9, 2021, end of day ","12-10-2021, 12:14 PM MST","6",,,"43","40","100","10","12","-9","0","18","1","Lowest",,,"14","15","6","22","2021","2005","18"
"Bear River RS","992	","Utah","SNOTEL","Summit","8777","40.8852","-110.8277","160101010106	","December 9, 2021, end of day ","12-10-2021, 12:14 PM MST","5",,,"45","45","100","13","15","-6","0","12","1","Lowest",,,"11","11","5","18","2021","2010","12"
"Bear Saddle","324	","Idaho","SNOTEL","Washington","6180","44.60533","-116.98097","170501241001	","December 9, 2021, end of day ","12-10-2021, 12:14 PM MST",,,,,,,,,,,,,,,,"14","14","6","25","2014","2015","9"
"Bear Trap Meadow","325	","Wyoming","SNOTEL","Johnson","8200","43.88743","-107.06135","100902010205	","December 9, 2021, end of day ","12-10-2021, 12:14 PM MST",,,,,,,,,,,,,,,,"12","10","3","20","2020","2019","18"
"Beartooth Lake","326	","Wyoming","SNOTEL","Park","9360","44.94307","-109.56743","100700060206	","December 9, 2021, end of day ","12-10-2021, 12:14 PM MST","19",,,"59","61","100","23","24","-12","0","19","1","Lowest",,,"32","31","19","46","2021","2017","19"
"Beartown","327	","Colorado","SNOTEL","Mineral","11600","37.71409","-107.51212","130100010104	","December 9, 2021, end of day ","12-10-2021, 12:14 PM MST",,,,,,,,,,,,,,,,"25","22","5","54","2017","2007","21"
"Beaver Ck Village","1041	","Colorado","SNOTEL","Eagle","8500","39.59917","-106.51142","140100030301	","December 9, 2021, end of day ","12-10-2021, 12:14 PM MST",,,,,,,,,,,,,,,,"14","15","2","20","2017","2005","18"
"Beaver Creek","328	","Montana","SNOTEL","Gallatin","7850","44.94966","-111.35852","100200070402	","December 9, 2021, end of day ","12-10-2021, 12:14 PM MST",,,,,,,,,,,,,,,,"21","22","6","31","2020","2012","19"
"Beaver Dams","329	","Utah","SNOTEL","Sanpete","7990","39.13683","-111.55813","160300040402	","December 9, 2021, end of day ","12-10-2021, 12:14 PM MST","11",,,"110","100","100","28","29","0","65","7","9",,,,"10","11","0","24","2017, 2020","2007","18"
"Beaver Divide","330	","Utah","SNOTEL","Summit","8280","40.61233","-111.09782","160202030105	","December 9, 2021, end of day ","12-10-2021, 12:14 PM MST","13",,,"93","100","100","28","31","0","55","10","11",,,,"14","13","7","25","2008, 2017, 2020","2004","21"
"Beaver Head","902	","Arizona","SNOTEL","Greenlee","7990","33.69144","-109.21657","150601010107	","December 9, 2021, end of day ","12-10-2021, 12:14 PM MST","0",,,"0","0","0","0","0","-1","40","13","1","Lowest",,,"3","1","0","15","2017, 2020, 2021, more","2009","21"
"Beaver Pass","990	","Washington","SNOTEL","Whatcom","3630","48.8793","-121.2555","171100050605	","December 9, 2021, end of day ","12-10-2021, 12:14 PM MST",,,,,,,,,,,,,,,,"30","28","0","60","2002","2012","19"
"Beaver Reservoir","331	","Oregon","SNOTEL","Union","5150","45.14532","-118.219","170601040301	","December 9, 2021, end of day ","12-10-2021, 12:14 PM MST","3",,,"38","38","75","8","8","-5","12","16","3",,,,"8","8","0","18","2014","2016","18"
"Beaver Spring","1143	","Arizona","SNOTEL","Apache","9200","36.32678","-109.05711","140802040401	","December 9, 2021, end of day ","12-10-2021, 12:14 PM MST",,,,,,,,,,,,,,,,"6","8","0","14","2014, 2017, 2020, more","2019","12"
"Ben Lomond Peak","332	","Utah","SNOTEL","Weber","7689","41.37603","-111.94405","160201020302	","December 9, 2021, end of day ","12-10-2021, 12:14 PM MST","10",,,"50","56","100","11","11","-8","13","21","3",,,,"20","18","7","48","2008, 2017","2001","24"
"Ben Lomond Trail","333	","Utah","SNOTEL","Weber","5972","41.38291","-111.92103","160201020302	","December 9, 2021, end of day ","12-10-2021, 12:14 PM MST","3",,,"20","19","100","5","5","-13","0","21","1","Lowest",,,"15","16","3","38","2021","2001","21"
"Berry Creek","334	","Nevada","SNOTEL","White Pine","9377","39.31917","-114.62278","160600081301	","December 9, 2021, end of day ","12-10-2021, 12:14 PM MST","19",,,"127","136","100","31","31","5","78","6","19",,,,"15","14","4","34","2017","2004","24"
"Berthoud Summit","335	","Colorado","SNOTEL","Grand","11300","39.80392","-105.77789","140100010202	","December 9, 2021, end of day ","12-10-2021, 12:14 PM MST","15",,,"62","62","100","20","19","-9","5","19","1","Lowest",,,"24","24","15","38","2012, 2021","2005","20"
"Bettles FAA Airport","0761	","Alaska","ACIS","Yukon-Koyukuk","640","66.91666","-151.51666","190901012604	","December 9, 2021, end of day ","12-10-2021, 12:14 PM MST",,,,,,,,,,,,,,,,"18","17","1","47","2012","1994","70"
"Bettles Field","1182	","Alaska","SNOTEL","Yukon-Koyukuk","640","66.91667","-151.53333","190901012604	","December 9, 2021, end of day ","12-10-2021, 12:14 PM MST","23",,,"153","121","96","68","66","4","78","3","8",,,,"15","19","0","24","2012","2011, 2018","10"
"Bevans Cabin","1214	","Utah","SNOTEL","Tooele","6520","40.46182","-112.25233","160203040401	","December 9, 2021, end of day ","12-10-2021, 12:14 PM MST","5",,,"71","71","100","14","14","-2","33","7","4",,,,"7","7","0","15","2014","2019","10"
"Big Bend","336	","Nevada","SNOTEL","Elko","6898","41.76168","-115.6931","170501040104	","December 9, 2021, end of day ","12-10-2021, 12:14 PM MST","2",,,"33","50","40","6","6","-2","14","19","3",,,,"6","4","1","19","2008, 2017","2001","22"
"Big Creek Sum","337	","Nevada","SNOTEL","Lander","8685","39.29148","-117.11506","160401070303	","December 9, 2021, end of day ","12-10-2021, 12:14 PM MST","13",,,"108","130","100","20","20","3","67","7","13",,,,"12","10","2","31","2012","2004","19"
"Big Creek Summit","338	","Idaho","SNOTEL","Valley","6560","44.62621","-115.79561","170602080402	","December 9, 2021, end of day ","12-10-2021, 12:14 PM MST","13",,,"50","59","100","14","14","-9","10","20","2","2nd Lowest",,,"26","22","11","49","2008","2004","22"
"Big Flat","339	","Utah","SNOTEL","Beaver","10349","38.30183","-112.35672","160300070202	","December 9, 2021, end of day ","12-10-2021, 12:14 PM MST","37",,,"161","161","100","50","51","14","92","3","24",,,,"23","23","0","44","2017","2004","26"
"Big Goose","931	","Wyoming","SNOTEL","Sheridan","7990","44.57924","-107.20068","100901010103	","December 9, 2021, end of day ","12-10-2021, 12:14 PM MST",,,,,,,,,,,,,,,,"12","11","6","21","2000, 2015","2011","23"
"Big Meadow","340	","Nevada","SNOTEL","Washoe","8235","39.455","-119.9422","160501020505	","December 9, 2021, end of day ","12-10-2021, 12:14 PM MST","12",,,"80","86","46","17","18","-2","40","10","7",,,,"15","14","5","36","2006, 2008, 2011","2019","16"
"Big Red Mountain","341	","Oregon","SNOTEL","Jackson","6050","42.05257","-122.85487","171003090301	","December 9, 2021, end of day ","12-10-2021, 12:14 PM MST","1",,,"7","8","25","1","1","-11","10","20","2","2nd Lowest",,,"14","12","0","51","2014","2001","22"
"Big Sandy Opening","342	","Wyoming","SNOTEL","Sublette","9080","42.6458","-109.25965","140401040101	","December 9, 2021, end of day ","12-10-2021, 12:14 PM MST","12",,,"63","67","100","22","22","-6","5","20","2","2nd Lowest",,,"19","18","10","35","2020","2004","21"
"Big Sheep AM","1229	","Oregon","SNOLITE","Wallowa","6240","45.16842","-117.08631","170601020301	","December 9, 2021, end of day ","12-10-2021, 12:14 PM MST",,,,,,,,,,,,,,,,"13","10","6","28","2018","2012","9"
"Bigelow Camp","343	","Oregon","SNOTEL","Josephine","5130","42.07875","-123.34393","171003090105	","December 9, 2021, end of day ","12-10-2021, 12:14 PM MST","0",,,"0","0",,"0","0","-4","29","13","1","Lowest",,,"5","4","0","18","2014, 2015, 2021, more","2016","18"
"Billie Creek Divide","344	","Oregon","SNOTEL","Klamath","5280","42.40717","-122.26617","180102030201	","December 9, 2021, end of day ","12-10-2021, 12:14 PM MST","0",,,"0","0","0","0","0","-10","0","20","1","Lowest",,,"12","10","0","34","2021","2005","20"
"Bird Creek","1155	","Nevada","SNOTEL","White Pine","7537","39.46138","-114.64863","160600081304	","December 9, 2021, end of day ","12-10-2021, 12:14 PM MST","6",,,"200","150","100","38","38","2","90","2","10","2nd Highest",,,"3","4","0","8","2014, 2017, 2020","2013","11"
"Bison Lake","345	","Colorado","SNOTEL","Garfield","10880","39.76487","-107.35681","140100011401	","December 9, 2021, end of day ","12-10-2021, 12:14 PM MST","31",,,"91","115","100","29","32","4","62","10","16",,,,"34","27","11","196","2017","2007","25"
"Bisson Creek","346	","Montana","SNOTEL","Lake","4920","47.68389","-113.99901","170102120602	","December 9, 2021, end of day ","12-10-2021, 12:14 PM MST",,,,,,,,,,,,,,,,"8","7","1","31","2015","2010","19"
"Black Bear","347	","Montana","SNOTEL","Gallatin","8170","44.50832","-111.12803","100200070202	","December 9, 2021, end of day ","12-10-2021, 12:14 PM MST",,,,,,,,,,,,,,,,"45","41","21","87","2002","1994","28"
"Black Flat-U.M. Ck","348	","Utah","SNOTEL","Sevier","9414","38.6799","-111.59765","140700030101	","December 9, 2021, end of day ","12-10-2021, 12:14 PM MST","8",,,"73","73","100","21","20","-3","32","16","7",,,,"11","11","1","22","2017","2004","23"
"Black Mesa","1185	","Colorado","SNOTEL","Dolores","11580","37.78972","-108.18365","140300020103	","December 9, 2021, end of day ","12-10-2021, 12:14 PM MST","31",,,"148","141","100","41","44","9","89","2","9","2nd Highest",,,"21","22","6","39","2017","2013","10"
"Black Mountain","1161	","Colorado","SNOTEL","Larimer","8920","40.888","-105.66397","101900070501	","December 9, 2021, end of day ","12-10-2021, 12:14 PM MST","8",,,"53","57","100","15","16","-6","9","11","1","Lowest",,,"15","14","8","27","2012, 2021","2019","12"
"Black Pine","349	","Montana","SNOTEL","Granite","7210","46.414","-113.43095","170102020203	","December 9, 2021, end of day ","12-10-2021, 12:14 PM MST",,,,,,,,,,,,,,,,"12","12","7","18","2002","2005, 2014","20"
"Blackhall Mtn","1119	","Wyoming","SNOTEL","Carbon","9820","41.05616","-106.71384","101800020504	","December 9, 2021, end of day ","12-10-2021, 12:14 PM MST","38",,,"106","100","100","36","39","0","58","6","7",,,,"36","38","26","49","2014, 2020","2010","13"
"Blacks Fork Jct","1162	","Utah","SNOTEL","Summit","8869","40.95814","-110.5828","140401070303	","December 9, 2021, end of day ","12-10-2021, 12:14 PM MST","6",,,"55","60","100","16","16","-4","9","11","1","Lowest",,,"11","10","6","16","2020, 2021","2012","12"
"Blacktail Mtn","1144	","Montana","SNOTEL","Flathead","5650","47.98288","-114.3543","170102080302	","December 9, 2021, end of day ","12-10-2021, 12:14 PM MST","8",,,"67","80","100","18","17","-2","36","8","5",,,,"12","10","4","25","2017","2010","12"
"Blackwall Peak","2G03P	","British Columbia","Cooperator Snow Sensors","	","6345","49.08333","-120.76667","170200070205	","December 9, 2021, end of day ","12-10-2021, 12:14 PM MST",,,,,,,,,,,,,,,,"36","37","9","63","2002","2015","17"
"Blackwater","350	","Wyoming","SNOTEL","Park","9780","44.37667","-109.79333","100800120209	","December 9, 2021, end of day ","12-10-2021, 12:14 PM MST","22",,,"63","65","96","24","25","-12","0","16","1","Lowest",,,"35","34","22","51","2021","2017","16"
"Blazed Alder","351	","Oregon","SNOTEL","Clackamas","3650","45.4287","-121.85605","170800010102	","December 9, 2021, end of day ","12-10-2021, 12:14 PM MST","13",,,"62","65","100","14","13","-7","42","15","11",,,,"21","20","0","55","2002, 2014","1996","25"
"Blewett Pass","352	","Washington","SNOTEL","Chelan","4240","47.35037","-120.6796","170200110501	","December 9, 2021, end of day ","12-10-2021, 12:14 PM MST","2",,,"20","20","40","4","4","-8","9","21","3",,,,"10","10","0","24","2002, 2008","2001","23"
"Blind Bull Sum","353	","Wyoming","SNOTEL","Sublette","8650","42.964","-110.60973","140401010402	","December 9, 2021, end of day ","12-10-2021, 12:14 PM MST",,,,,,,,,,,,,,,,"31","32","18","45","2002","2001","20"
"Blind Park","354	","South Dakota","SNOTEL","Pennington","6890","44.10772","-103.97688","101201100104	","December 9, 2021, end of day ","12-10-2021, 12:14 PM MST","4",,,"44","44","50","12","12","-5","11","17","2","2nd Lowest",,,"9","9","1","18","2020","2019","19"
"Bloody Dick","355	","Montana","SNOTEL","Beaverhead","7600","45.16507","-113.50099","100200011002	","December 9, 2021, end of day ","12-10-2021, 12:14 PM MST",,,,,,,,,,,,,,,,"16","16","10","25","2002","2015","22"
"Blue Lakes","356	","California","SNOTEL","Alpine","8067","38.608","-119.92437","180400120101	","December 9, 2021, end of day ","12-10-2021, 12:14 PM MST","3",,,"17","23","33","4","4","-10","4","23","1","Lowest",,,"18","13","3","50","2008, 2021","2001","24"
"Blue Mountain Spring","357	","Oregon","SNOTEL","Grant","5870","44.24767","-118.51722","170501160104	","December 9, 2021, end of day ","12-10-2021, 12:14 PM MST","5",,,"36","42","100","9","9","-7","9","22","3",,,,"14","12","0","34","2002","2001","24"
"Bobs Hollow","1278	","Utah","SNOTEL","Millard","9319","38.94569","-112.15349","160300051401	","December 9, 2021, end of day ","12-10-2021, 12:14 PM MST","15",,,"125","94","100","28","30","-1","40","4","3",,,,"12","16","1","21","2017","2019","6"
"Bogus Basin","978	","Idaho","SNOTEL","Boise","6340","43.76377","-116.09685","170501220201	","December 9, 2021, end of day ","12-10-2021, 12:14 PM MST","8",,,"42","47","100","11","10","-9","9","21","3",,,,"19","17","6","54","2008, 2012","2001","23"
"Bondurant","0865	","Wyoming","ACIS","Sublette","6620","43.2","-110.4","170401030207	","December 9, 2021, end of day ","12-10-2021, 12:14 PM MST",,,,,,,,,,,,,,,,"14","12","0","36","1959, 1969","1996","63"
"Bone Springs Div","358	","Wyoming","SNOTEL","Sheridan","9350","44.67888","-107.5811","100800100102	","December 9, 2021, end of day ","12-10-2021, 12:14 PM MST","21",,,"88","88","100","32","33","-3","28","14","4",,,,"24","24","15","32","2015","2008, 2011","19"
"Bonneville Dam","350897	","Oregon","ACIS","Multnomah","62","45.6353","-121.9522","170800010801	","December 9, 2021, end of day ","12-10-2021, 12:14 PM MST",,,,,,,,,,,,,,,,"0","0","0","15","2018, 2019, 2020, more","2016","67"
"Boss Mountain Mine","1C20P	","British Columbia","Cooperator Snow Sensors","	","4846","52.1","-120.86667","	","December 9, 2021, end of day ","12-10-2021, 12:14 PM MST",,,,,,,,,,,,,,,,"30","28","9","69","2002","2009","23"
"Bostetter R.S.","359	","Idaho","SNOTEL","Cassia","7500","42.16442","-114.19272","170402120201	","December 9, 2021, end of day ","12-10-2021, 12:14 PM MST","4",,,"36","36","67","7","7","-7","7","15","1","Lowest",,,"11","11","4","21","2007, 2021","2010","16"
"Boulder Mountain","360	","Montana","SNOTEL","Meagher","7950","46.5596","-111.28973","100301030501	","December 9, 2021, end of day ","12-10-2021, 12:14 PM MST","13",,,"52","54","93","18","18","-11","0","21","1","Lowest",,,"25","24","13","40","2021","2013","21"
"Boulder Rearing Stn","0951	","Wyoming","ACIS","Sublette","6940","42.71666","-109.68333","140401020602	","December 9, 2021, end of day ","12-10-2021, 12:14 PM MST",,,,,,,,,,,,,,,,"2","2","0","6","2014, 2017, 2020, more","2001, 2016, 2018","32"
"Bourne","361	","Oregon","SNOTEL","Baker","5850","44.83052","-118.18787","170502030101	","December 9, 2021, end of day ","12-10-2021, 12:14 PM MST","4",,,"40","40","100","8","8","-6","13","14","1","Lowest",,,"10","10","4","20","2008, 2017, 2021","2010","16"
"Bowman Springs","362	","Oregon","SNOTEL","Umatilla","4530","45.36428","-118.46715","170701030401	","December 9, 2021, end of day ","12-10-2021, 12:14 PM MST","3",,,"50","60","100","10","11","-2","27","12","4",,,,"6","5","0","15","2014","2007","16"
"Box Canyon","363	","Montana","SNOTEL","Park","6670","45.2719","-110.24903","100700020902	","December 9, 2021, end of day ","12-10-2021, 12:14 PM MST","5",,,"45","50","83","13","13","-5","0","20","1","Lowest",,,"11","10","5","19","2021","2005","20"
"Box Creek","364	","Utah","SNOTEL","Sevier","9853","38.50809","-112.01856","160300020106	","December 9, 2021, end of day ","12-10-2021, 12:14 PM MST","9",,,"82","82","100","18","19","-2","43","14","10",,,,"11","11","0","30","2017","2004","24"
"Box Springs","1156	","Utah","SNOTEL","Piute","9228","38.49746","-112.00779","160300020107	","December 9, 2021, end of day ","12-10-2021, 12:14 PM MST","7",,,"100","117","100","24","25","1","73","4","7",,,,"7","6","0","17","2017","2019","12"
"Brackett Creek","365	","Montana","SNOTEL","Gallatin","7320","45.89107","-110.93851","100700030403	","December 9, 2021, end of day ","12-10-2021, 12:14 PM MST","10",,,"45","45","62","14","14","-12","0","20","1","Lowest",,,"22","22","10","33","2021","2013","20"
"Brian Head","1154	","Utah","SNOTEL","Iron","10039","37.67994","-112.85674","160300060201	","December 9, 2021, end of day ","12-10-2021, 12:14 PM MST","17",,,"106","113","100","27","26","2","60","5","7",,,,"16","15","0","37","2017","2019","11"
"Brighton","366	","Utah","SNOTEL","Salt Lake","8766","40.59936","-111.58167","160202040201	","December 9, 2021, end of day ","12-10-2021, 12:14 PM MST","17",,,"81","89","100","24","24","-2","38","16","9",,,,"21","19","6","49","2020","2004","25"
"Bristlecone Trail","1111	","Nevada","SNOTEL","Clark","8890","36.31575","-115.69543","150100150206	","December 9, 2021, end of day ","12-10-2021, 12:14 PM MST","2",,,"33","50","20","6","7","-2","31","10","5",,,,"6","4","0","16","2014, 2017, 2020, more","2011","14"
"Brooklyn Lake","367	","Wyoming","SNOTEL","Albany","10240","41.35885","-106.23209","101800100502	","December 9, 2021, end of day ","12-10-2021, 12:14 PM MST","25",,,"93","100","100","25","29","0","50","10","9",,,,"27","25","16","37","2020","2019","19"
"Brown Duck","368	","Utah","SNOTEL","Duchesne","10574","40.58102","-110.58587","140600030604	","December 9, 2021, end of day ","12-10-2021, 12:14 PM MST","27",,,"104","100","100","36","39","0","56","9","10",,,,"26","27","12","59","2020","2004","19"
"Brown Top","1080	","Washington","SNOTEL","Whatcom","5830","48.92755","-121.19713","171100050601	","December 9, 2021, end of day ","12-10-2021, 12:14 PM MST","58",,,"100","100","100","35","36","0","50","7","7",,,,"58","58","22","95","2019","2012, 2015","13"
"Brumley","369	","Colorado","SNOTEL","Lake","10600","39.08766","-106.5417","110200010101	","December 9, 2021, end of day ","12-10-2021, 12:14 PM MST","17",,,"59","89","100","20","33","-2","33","13","7",,,,"29","19","1","235","2012","2003","19"
"Brundage Reservoir","370	","Idaho","SNOTEL","Adams","6250","45.04315","-116.13253","170602100104	","December 9, 2021, end of day ","12-10-2021, 12:14 PM MST",,,,,,,,,,,,,,,,"24","24","10","35","2008","2004","17"
"Buck Flat","371	","Utah","SNOTEL","Sanpete","9409","39.134","-111.43722","140600090302	","December 9, 2021, end of day ","12-10-2021, 12:14 PM MST","14",,,"88","100","100","24","24","0","47","11","9",,,,"16","14","1","28","2017","2004","20"
"Buck Pasture","1192	","Utah","SNOTEL","Summit","9632","40.84456","-110.66068","140401070301	","December 9, 2021, end of day ","12-10-2021, 12:14 PM MST","18",,,"106","106","100","33","33","1","60","5","7",,,,"17","17","10","26","2011","2019","11"
"Buckboard Flat","1153	","Utah","SNOTEL","San Juan","8924","37.86943","-109.44717","140802030103	","December 9, 2021, end of day ","12-10-2021, 12:14 PM MST","10",,,"83","143","100","21","21","3","67","4","7",,,,"12","7","0","31","2017","2013, 2019","10"
"Buckhorn","2216	","Nevada","SCAN","Washoe","3925","40.87959","-119.9534","180800020104	","December 9, 2021, end of day ","12-10-2021, 12:14 PM MST","0",,,,,"0","0","0","0","67","2","1","Lowest",,,"0","0","0","1","2015, 2020, 2021","2017","4"
"Buckinghorse","1107	","Washington","SNOTEL","Jefferson","4870","47.7086","-123.45747","171100200501	","December 9, 2021, end of day ","12-10-2021, 12:14 PM MST",,,,,,,,,,,,,,,,"35","32","0","79","2014, 2019","2012","13"
"Buckskin Joe","938	","Colorado","SNOTEL","Park","11150","39.3035","-106.11307","101900010102	","December 9, 2021, end of day ","12-10-2021, 12:14 PM MST",,,,,,,,,,,,,,,,"14","14","3","22","2012","2005, 2007, 2018","22"
"Buckskin Lake AM","1292	","Oregon","SNOLITE","Harney","5190","43.02503","-118.94785","171200030206	","December 9, 2021, end of day ","12-10-2021, 12:14 PM MST","0",,,,,,"0","0","0","67","2","1","Lowest",,,"0","0","0","1","2019, 2020, 2021","2018","4"
"Buckskin Lower","373	","Nevada","SNOTEL","Humboldt","6930","41.75067","-117.53182","160401090502	","December 9, 2021, end of day ","12-10-2021, 12:14 PM MST","9",,,"100","100","100","23","24","0","53","9","7",,,,"9","9","2","14","2014","2004, 2010","18"
"Buffalo Park","913	","Colorado","SNOTEL","Grand","9240","40.22861","-106.59528","140100010706	","December 9, 2021, end of day ","12-10-2021, 12:14 PM MST","12",,,"60","67","100","14","20","-6","5","19","2","2nd Lowest",,,"20","18","11","30","2020","2004, 2005","20"
"Bug Lake","374	","Utah","SNOTEL","Rich","7987","41.68541","-111.41987","160102010102	","December 9, 2021, end of day ","12-10-2021, 12:14 PM MST","8",,,"40","42","100","13","13","-11","0","23","1","Lowest",,,"20","19","8","37","2021","2004","23"
"Bull Basin AM","1293	","Idaho","SNOLITE","Owyhee","5480","42.35673","-116.95906","170501041703	","December 9, 2021, end of day ","12-10-2021, 12:14 PM MST","0",,,"0","0",,"0","0","-1","0","4","1","Lowest",,,"1","1","0","3","2021","2018","4"
"Bumping Ridge","375	","Washington","SNOTEL","Yakima","4610","46.81003","-121.33058","170300020105	","December 9, 2021, end of day ","12-10-2021, 12:14 PM MST","6",,,"29","32","33","7","6","-13","11","17","3",,,,"21","19","2","45","2008, 2014","2010","19"
"Bunchgrass Mdw","376	","Washington","SNOTEL","Pend Oreille","5000","48.68688","-117.17633","170102160401	","December 9, 2021, end of day ","12-10-2021, 12:14 PM MST","15",,,"60","58","94","18","17","-11","6","16","2","2nd Lowest",,,"25","26","12","41","2014","2004","17"
"Burgess Junction","377	","Wyoming","SNOTEL","Sheridan","7880","44.78765","-107.52917","100901010202	","December 9, 2021, end of day ","12-10-2021, 12:14 PM MST",,,,,,,,,,,,,,,,"15","14","8","23","2015","2011","17"
"Burnside Lake","1051	","California","SNOTEL","Alpine","8129","38.71943","-119.8942","160502010107	","December 9, 2021, end of day ","12-10-2021, 12:14 PM MST","7",,,"39","50","37","8","8","-7","11","17","3",,,,"18","14","3","44","2008, 2011","2019","19"
"Burnt Bridge Creek","3C08P	","British Columbia","Cooperator Snow Sensors","	","4360","52.46667","-126.23333","	","December 9, 2021, end of day ","12-10-2021, 12:14 PM MST",,,,,,,,,,,,,,,,"37","37","9","64","2002","2004","19"
"Burnt Mountain","942	","Washington","SNOTEL","Pierce","4170","47.0444","-121.94032","171100140103	","December 9, 2021, end of day ","12-10-2021, 12:14 PM MST","3",,,"30","50","75","5","5","-3","43","13","5",,,,"10","6","0","28","2014, 2015, 2019, more","2016","22"
"Burnt Mtn","981	","Montana","SNOTEL","Carbon","5880","45.2401","-109.45961","100700060802	","December 9, 2021, end of day ","12-10-2021, 12:14 PM MST","3",,,"43","38","27","10","11","-5","21","16","5",,,,"7","8","0","16","2006, 2015","2013","20"
"Burro Mountain","378	","Colorado","SNOTEL","Rio Blanco","9400","39.87505","-107.59853","140500050302	","December 9, 2021, end of day ","12-10-2021, 12:14 PM MST","9",,,"56","50","100","12","17","-9","16","17","4",,,,"16","18","8","27","2012, 2017, 2020","2005","20"
"Burroughs Creek","379	","Wyoming","SNOTEL","Fremont","8750","43.69733","-109.67021","100800010102	","December 9, 2021, end of day ","12-10-2021, 12:14 PM MST","1",,,"5","5","25","2","2","-19","0","18","1","Lowest",,,"19","20","1","31","2021","2007","18"
"Burts Miller Ranch","1135	","Utah","SNOTEL","Summit","8000","40.98492","-110.85075","160101010105	","December 9, 2021, end of day ","12-10-2021, 12:14 PM MST","8",,,"114","100","100","31","31","0","67","5","7",,,,"7","8","0","10","2017","2013, 2018, 2019","13"
"Butte","380	","Colorado","SNOTEL","Gunnison","10160","38.89433","-106.953","140200010206	","December 9, 2021, end of day ","12-10-2021, 12:14 PM MST","25",,,"139","147","100","32","45","8","83","4","16",,,,"18","17","5","41","2012","2007","19"
"Calamity","1109	","Washington","SNOTEL","Skamania","2500","45.90362","-122.21633","170800020603	","December 9, 2021, end of day ","12-10-2021, 12:14 PM MST",,,,,,,,,,,,,,,,"1","0","0","8","2017, 2019, 2020, more","2016","13"
"Call Meadows AM","1289	","Oregon","SNOLITE","Harney","5380","43.81191","-118.78565","171200010201	","December 9, 2021, end of day ","12-10-2021, 12:14 PM MST",,,,,,,,,,,,,,,,"5","4","2","9","2020","2019","3"
"Calvert Creek","381	","Montana","SNOTEL","Deer Lodge","6430","45.8838","-113.32553","100200040801	","December 9, 2021, end of day ","12-10-2021, 12:14 PM MST","1",,,"10","11","50","3","3","-8","0","19","1","Lowest",,,"10","9","1","18","2021","2005","19"
"Camas Creek Divide","382	","Idaho","SNOTEL","Elmore","5710","43.26548","-115.3453","170402200101	","December 9, 2021, end of day ","12-10-2021, 12:14 PM MST","0",,,"0","0","0","0","0","-6","0","12","1","Lowest",,,"8","6","0","18","2021","2010","12"
"Camp Jackson","383	","Utah","SNOTEL","San Juan","8858","37.81333","-109.48723","140802010301	","December 9, 2021, end of day ","12-10-2021, 12:14 PM MST","10",,,"83","91","100","20","20","-1","42","15","11",,,,"12","11","0","28","2012, 2017","2019","25"
"Canyon","384	","Wyoming","SNOTEL","Park","7870","44.71961","-110.51084","100700010705	","December 9, 2021, end of day ","12-10-2021, 12:14 PM MST","6",,,"35","38","100","11","12","-10","0","19","1","Lowest",,,"17","16","6","26","2021","2010","19"
"Carrot Basin","385	","Montana","SNOTEL","Gallatin","9000","44.96192","-111.29403","100200080105	","December 9, 2021, end of day ","12-10-2021, 12:14 PM MST","32",,,"94","100","100","34","36","0","52","13","12",,,,"34","32","18","58","2002","1996","26"
"Carson Pass","1067	","California","SNOTEL","Alpine","8360","38.6927","-120.0022","180201290101	","December 9, 2021, end of day ","12-10-2021, 12:14 PM MST","9",,,"41","56","64","9","10","-7","12","16","2","2nd Lowest",,,"22","16","8","51","2011","2004","18"
"Cascade","386	","Colorado","SNOTEL","San Juan","8880","37.65083","-107.80602","140801040201	","December 9, 2021, end of day ","12-10-2021, 12:14 PM MST",,,,,,,,,,,,,,,,"11","10","0","27","2012, 2017","2007, 2009","16"
"Cascade #2","387	","Colorado","SNOTEL","San Juan","8920","37.658","-107.80268","140801040201	","December 9, 2021, end of day ","12-10-2021, 12:14 PM MST","21",,,"191","262","100","48","48","13","76","5","14",,,,"11","8","0","29","2012, 2017","2007","18"
"Cascade Mountain","1039	","Utah","SNOTEL","Utah","7774","40.283","-111.60992","160202030505	","December 9, 2021, end of day ","12-10-2021, 12:14 PM MST","13",,,"87","93","87","22","24","-1","47","11","7",,,,"15","14","1","30","2017","2007","20"
"Cascade Summit","388	","Oregon","SNOTEL","Deschutes","5100","43.59042","-122.0601","170900010301	","December 9, 2021, end of day ","12-10-2021, 12:14 PM MST","10",,,"40","48","100","10","10","-11","23","18","5",,,,"25","21","6","61","2008","1998","23"
"Casper Mtn.","389	","Wyoming","SNOTEL","Natrona","7900","42.73389","-106.31861","101800070804	","December 9, 2021, end of day ","12-10-2021, 12:14 PM MST","7",,,"47","47","58","10","12","-8","18","19","4",,,,"15","15","2","39","2020","1996","23"
"Castle Creek","1130	","Wyoming","SNOTEL","Fremont","8400","43.6748","-109.3774","100800010401	","December 9, 2021, end of day ","12-10-2021, 12:14 PM MST","0",,,"0","0","0","0","0","-11","0","12","1","Lowest",,,"10","11","0","16","2021","2014","12"
"Castle Valley","390	","Utah","SNOTEL","Iron","9607","37.66098","-112.74093","160300010201	","December 9, 2021, end of day ","12-10-2021, 12:14 PM MST","9",,,"64","75","90","16","17","-3","28","14","6",,,,"14","12","0","36","2017, 2020","2004","19"
"Cave Mountain","1152	","Nevada","SNOTEL","White Pine","10578","39.16337","-114.6133","160600080402	","December 9, 2021, end of day ","12-10-2021, 12:14 PM MST",,,,,,,,,,,,,,,,"7","6","0","18","2017","2019","10"
"Cayuse Pass","1085	","Washington","SNOTEL","Pierce","5240","46.86954","-121.5343","171100140301	","December 9, 2021, end of day ","12-10-2021, 12:14 PM MST",,,,,,,,,,,,,,,,"37","33","5","73","2014","2010","15"
"Cedar Kiteen","4B18P	","British Columbia","Cooperator Snow Sensors","	","2992","55.15","-128.7","	","December 9, 2021, end of day ","12-10-2021, 12:14 PM MST",,,,,,,,,,,,,,,,"20","18","11","43","2002, 2016","2011","12"
"Cedar Pass","391	","California","SNOTEL","Modoc","7030","41.58233","-120.3025","180200020603	","December 9, 2021, end of day ","12-10-2021, 12:14 PM MST","2",,,"22","25","20","4","4","-6","7","15","2","2nd Lowest",,,"9","8","1","23","2008","2010","16"
"Celista Mountain","1F06P	","British Columbia","Cooperator Snow Sensors","	","5030","51.4","-118.98333","	","December 9, 2021, end of day ","12-10-2021, 12:14 PM MST",,,,,,,,,,,,,,,,"47","46","30","64","2005","2004","15"
"Chalender","1139	","Arizona","SNOTEL","Coconino","7100","35.26247","-112.06231","150602020305	","December 9, 2021, end of day ","12-10-2021, 12:14 PM MST",,,,,,,,,,,,,,,,"3","0","0","17","2015, 2017, 2020, more","2009","12"
"Chalk Creek #1","392	","Utah","SNOTEL","Summit","9171","40.85464","-111.04765","160201010301	","December 9, 2021, end of day ","12-10-2021, 12:14 PM MST","18",,,"69","75","100","23","23","-6","21","20","6",,,,"26","24","14","47","2020","2004","25"
"Chalk Creek #2","393	","Utah","SNOTEL","Summit","8208","40.88529","-111.06954","160201010301	","December 9, 2021, end of day ","12-10-2021, 12:14 PM MST","13",,,"68","68","100","22","23","-6","8","23","2","2nd Lowest",,,"19","19","10","34","2020","2001","25"
"Chamita","394	","New Mexico","SNOTEL","Rio Arriba","8400","36.95636","-106.65682","130201020204	","December 9, 2021, end of day ","12-10-2021, 12:14 PM MST",,,,,,,,,,,,,,,,"8","7","0","23","2006, 2012, 2017","2009","20"
"Chapman Tunnel","1101	","Colorado","SNOTEL","Pitkin","10110","39.26217","-106.62931","140100040504	","December 9, 2021, end of day ","12-10-2021, 12:14 PM MST","14",,,"47","78","100","21","26","-4","21","12","4",,,,"30","18","11","194","2017","2008","15"
"Charkiln","2145	","Nevada","SCAN","Clark","6683","36.36651","-115.82047","160600150101	","December 9, 2021, end of day ","12-10-2021, 12:14 PM MST","1",,,,,"10","8","8","1","88","2","8","2nd Highest",,,"0","0","0","2","2017, 2018, 2020, more","2019","9"
"Checkers Creek","2213	","Alaska","SCAN","Nome","326","65.403","-164.711","190501050503	","December 9, 2021, end of day ","12-10-2021, 12:14 PM MST",,,,,,,,,,,,,,,,"4","1","0","10","2016","2015","3"
"Chemult Alternate","395	","Oregon","SNOTEL","Klamath","4850","43.22625","-121.80662","180102010201	","December 9, 2021, end of day ","12-10-2021, 12:14 PM MST","0",,,"0","0","0","0","0","-4","19","14","1","Lowest",,,"5","4","0","25","2014, 2017, 2021, more","2005","17"
"Chena Lakes","1260	","Alaska","SNOTEL","Fairbanks North Star","500","64.75793","-147.21823","190803060901	","December 9, 2021, end of day ","12-10-2021, 12:14 PM MST",,,,,,,,,,,,,,,,"10","10","10","10","2020","2020","1"
"Chepeta","396	","Utah","SNOTEL","Duchesne","10499","40.77458","-110.0105","140600031202	","December 9, 2021, end of day ","12-10-2021, 12:14 PM MST","15",,,"79","83","100","25","24","-3","35","12","5",,,,"19","18","8","45","2017","2004","18"
"Chicken Ridge","2150	","Utah","SCAN","Morgan","7649","41.33136","-111.3036","160201010603	","December 9, 2021, end of day ","12-10-2021, 12:14 PM MST",,,,,,,,,,,,,,,,"10","10","4","18","2017","2019","7"
"Chilliwack River","1D17P	","British Columbia","Cooperator Snow Sensors","	","5318","49.01667","-121.7","171100010206	","December 9, 2021, end of day ","12-10-2021, 12:14 PM MST",,,,,,,,,,,,,,,,"52","53","10","124","2019","2003","19"
"Chisana","1093	","Alaska","SNOTEL","Valdez-Cordova","3320","62.069","-142.049","190803010305	","December 9, 2021, end of day ","12-10-2021, 12:14 PM MST","8",,,"80","80","100","40","42","-2","23","11","4",,,,"10","10","0","17","2016","2017","14"
"Chocolate Gulch","895	","Idaho","SNOTEL","Blaine","6310","43.7685","-114.41812","170402190301	","December 9, 2021, end of day ","12-10-2021, 12:14 PM MST","2",,,"17","18","40","4","5","-9","6","18","2","2nd Lowest",,,"12","11","1","26","2008","2004","19"
"Cinnabar Park","1046	","Wyoming","SNOTEL","Albany","9574","41.23837","-106.23095","101800100503	","December 9, 2021, end of day ","12-10-2021, 12:14 PM MST","23",,,"88","85","100","25","30","-4","39","12","6",,,,"26","27","13","36","2020","2010, 2019","19"
"Clackamas Lake","398	","Oregon","SNOTEL","Clackamas","3400","45.09658","-121.75443","170900110301	","December 9, 2021, end of day ","12-10-2021, 12:14 PM MST","5",,,"71","83","100","12","12","-1","47","11","9",,,,"7","6","0","22","2002, 2015","2005","20"
"Clayton Springs","983	","Utah","SNOTEL","Garfield","10049","37.9725","-111.83355","160300020501	","December 9, 2021, end of day ","12-10-2021, 12:14 PM MST","12",,,"75","86","100","23","23","-2","48","12","6",,,,"16","14","0","37","2017","2004","22"
"Clear Creek #1","399	","Utah","SNOTEL","Utah","8975","39.86671","-111.28363","160202020102	","December 9, 2021, end of day ","12-10-2021, 12:14 PM MST","10",,,"62","59","100","17","18","-7","21","16","4",,,,"16","17","3","32","2017","2004","20"
"Clear Creek #2","400	","Utah","SNOTEL","Utah","7837","39.89275","-111.25154","160202020102	","December 9, 2021, end of day ","12-10-2021, 12:14 PM MST","11",,,"73","69","100","23","24","-5","22","15","4",,,,"15","16","1","23","2017","2003","19"
"Clear Lake","401	","Oregon","SNOTEL","Wasco","3810","45.18832","-121.6916","170703060901	","December 9, 2021, end of day ","12-10-2021, 12:14 PM MST","3",,,"38","60","100","7","7","-2","38","11","6",,,,"8","5","0","24","2008, 2014, 2015","2016","17"
"Cloud Peak Reservoir","402	","Wyoming","SNOTEL","Johnson","9860","44.40343","-107.06057","100902060301	","December 9, 2021, end of day ","12-10-2021, 12:14 PM MST","20",,,"95","100","95","29","30","0","50","10","8",,,,"21","20","11","26","2015","2011, 2013, 2019, more","19"
"Clover Meadow","403	","Montana","SNOTEL","Madison","8600","45.01788","-111.8456","100200070803	","December 9, 2021, end of day ","12-10-2021, 12:14 PM MST","16",,,"76","70","80","25","25","-7","23","18","6",,,,"21","23","13","32","2002, 2006, 2020","2007","23"
"Cochetopa Pass","1059	","Colorado","SNOTEL","Saguache","10020","38.16283","-106.59883","130100040203	","December 9, 2021, end of day ","12-10-2021, 12:14 PM MST","1",,,"17","17","50","2","4","-5","12","16","1","Lowest",,,"6","6","1","13","2012, 2017, 2021","2007, 2019","18"
"Cold Springs","405	","Wyoming","SNOTEL","Fremont","9630","43.27676","-109.44585","100800010702	","December 9, 2021, end of day ","12-10-2021, 12:14 PM MST",,,,,,,,,,,,,,,,"12","13","5","19","2020","2013","23"
"Cold Springs Camp","406	","Oregon","SNOTEL","Klamath","5940","42.53305","-122.17683","180102030202	","December 9, 2021, end of day ","12-10-2021, 12:14 PM MST","0",,,"0","0","0","0","0","-8","6","16","1","Lowest",,,"12","8","0","46","2014, 2021","2005","17"
"Coldfoot","958	","Alaska","SNOTEL","Yukon-Koyukuk","1040","67.25333","-150.183","190901010604	","December 9, 2021, end of day ","12-10-2021, 12:14 PM MST","24",,,"150","141","83","22","67","7","86","4","19",,,,"16","17","0","26","2012","2004, 2011","22"
"Cole Canyon","982	","Wyoming","SNOTEL","Crook","5910","44.48632","-104.41057","101202030302	","December 9, 2021, end of day ","12-10-2021, 12:14 PM MST","2",,,"33","33","15","8","8","-4","16","17","3",,,,"6","6","0","17","2020","2019","20"
"Cole Creek","407	","Montana","SNOTEL","Carbon","7850","45.19405","-109.34548","100700060801	","December 9, 2021, end of day ","12-10-2021, 12:14 PM MST","7",,,"37","35","39","10","11","-13","0","20","1","Lowest",,,"19","20","7","30","2021","2009, 2013","20"
"Columbia Basin","1204	","Nevada","SNOTEL","Elko","6483","41.67167","-116.07033","170501050503	","December 9, 2021, end of day ","12-10-2021, 12:14 PM MST",,,,,,,,,,,,,,,,"4","2","0","14","2017, 2020","2018","9"
"Columbine","408	","Colorado","SNOTEL","Jackson","9160","40.3948","-106.60408","101800010102	","December 9, 2021, end of day ","12-10-2021, 12:14 PM MST","12",,,"46","50","100","13","16","-12","0","19","1","Lowest",,,"26","24","12","46","2021","2004","19"
"Columbine Pass","409	","Colorado","SNOTEL","Montrose","9400","38.41795","-108.38249","140200050202	","December 9, 2021, end of day ","12-10-2021, 12:14 PM MST","25",,,"147","167","100","28","38","10","78","5","15",,,,"17","15","2","35","2017","2007, 2013","19"
"Columbus Basin","904	","Colorado","SNOTEL","La Plata","10785","37.44147","-108.02445","140801050101	","December 9, 2021, end of day ","12-10-2021, 12:14 PM MST","24",,,"83","92","100","20","27","-2","41","14","8",,,,"29","26","8","49","2012, 2017","1996","23"
"Combination","410	","Montana","SNOTEL","Granite","5600","46.46523","-113.39358","170102020401	","December 9, 2021, end of day ","12-10-2021, 12:14 PM MST","1",,,"20","25","50","5","5","-3","0","19","1","Lowest",,,"5","4","1","10","2021","2005","19"
"Cool Creek","411	","Idaho","SNOTEL","Clearwater","6280","46.76361","-115.29528","170603070702	","December 9, 2021, end of day ","12-10-2021, 12:14 PM MST",,,,,,,,,,,,,,,,"38","37","14","80","2002","2001","20"
"Cooper Lake","959	","Alaska","SNOTEL","Kenai Peninsula","1200","60.39027","-149.6936","190203021205	","December 9, 2021, end of day ","12-10-2021, 12:14 PM MST",,,,,,,,,,,,,,,,"15","14","0","30","2002","2010","18"
"Copeland Lake","412	","Colorado","SNOTEL","Boulder","8600","40.20778","-105.56861","101900050202	","December 9, 2021, end of day ","12-10-2021, 12:14 PM MST","3",,,"43","43","100","8","10","-4","19","14","3",,,,"7","7","1","12","2012, 2017","2005","17"
"Copper Bottom","413	","Montana","SNOTEL","Lewis And Clark","5200","47.05678","-112.595","170102030103	","December 9, 2021, end of day ","12-10-2021, 12:14 PM MST","2",,,"29","33","67","6","6","-4","16","17","2","2nd Lowest",,,"7","6","1","16","2015","2005","20"
"Copper Camp","414	","Montana","SNOTEL","Lewis And Clark","6950","47.08158","-112.72955","170102030103	","December 9, 2021, end of day ","12-10-2021, 12:14 PM MST","12",,,"38","39","100","12","11","-19","11","18","3",,,,"32","31","6","58","2018","2003","20"
"Copper Mountain","415	","Colorado","SNOTEL","Summit","10550","39.48954","-106.17095","140100020302	","December 9, 2021, end of day ","12-10-2021, 12:14 PM MST","14",,,"78","74","100","21","25","-5","38","11","7",,,,"18","19","8","31","2020","2005","17"
"Corduroy Flat","1209	","Nevada","SNOTEL","White Pine","8640","38.99651","-115.42478","160600121206	","December 9, 2021, end of day ","12-10-2021, 12:14 PM MST","9",,,"300",,"100","69","75","9","100","1","9","Highest",,,"3","0","0","9","2016, 2017, 2020, more","2013, 2021","10"
"Coronado Trail","416	","Arizona","SNOTEL","Apache","8400","33.80392","-109.15282","150400040501	","December 9, 2021, end of day ","12-10-2021, 12:14 PM MST","0",,,"0","0","0","0","0","-1","31","12","1","Lowest",,,"3","1","0","14","2015, 2017, 2021, more","2009","17"
"Corral","1236	","Utah","SNOTEL","Carbon","8207","39.65795","-110.37906","140600070903	","December 9, 2021, end of day ","12-10-2021, 12:14 PM MST","11",,,"157","183","100","35","39","5","75","3","7",,,,"7","6","0","16","2017","2013","9"
"Corral Canyon","417	","Nevada","SNOTEL","Elko","8445","40.27551","-115.54017","160401030401	","December 9, 2021, end of day ","12-10-2021, 12:14 PM MST","7",,,"47","54","64","11","11","-6","5","20","2","2nd Lowest",,,"15","13","1","40","2008","2004","21"
"Corral Pass","418	","Washington","SNOTEL","Pierce","5800","47.01872","-121.46464","171100140307	","December 9, 2021, end of day ","12-10-2021, 12:14 PM MST","15",,,"58","62","79","14","14","-9","29","11","5",,,,"26","24","10","47","2014","2012","15"
"Cottonwood Creek","419	","Wyoming","SNOTEL","Lincoln","7670","42.6459","-110.81482","170401050102	","December 9, 2021, end of day ","12-10-2021, 12:14 PM MST",,,,,,,,,,,,,,,,"24","27","16","29","2015","2019","7"
"Cottonwood Pass","1281	","Colorado","SNOLITE","Gunnison","11681","38.83416","-106.42116","140200010106	","December 9, 2021, end of day ","12-10-2021, 12:14 PM MST","26",,,"100","100","15",,,"0",,"1","1",,,,"26","26","26","26","2021","2021","1"
"Couch Summit","1306	","Idaho","SNOTEL","Camas","6800","43.51768","-114.8022","170501130204	","December 9, 2021, end of day ","12-10-2021, 12:14 PM MST","4",,,"100","100","3",,,"0",,"1","1",,,,"4","4","4","4","2021","2021","1"
"Cougar Mountain","420	","Washington","SNOTEL","King","3200","47.27666","-121.67138","171100130202	","December 9, 2021, end of day ","12-10-2021, 12:14 PM MST","9",,,"100","150","100","17","18","3","58","9","12",,,,"9","6","0","22","2014, 2015, 2019, more","2006","20"
"County Line","422	","Oregon","SNOTEL","Umatilla","4830","45.19107","-118.55015","170601040202	","December 9, 2021, end of day ","12-10-2021, 12:14 PM MST","2",,,"67","100","67","12","13","0","55","10","8",,,,"3","2","0","12","2014, 2015, 2019, more","2010","21"
"Cox Flat AM","1273	","Oregon","SNOLITE","Lake","5710","42.36192","-120.60912","180200010205	","December 9, 2021, end of day ","12-10-2021, 12:14 PM MST","0",,,"0","0",,"0","0","-2","17","6","1","Lowest",,,"2","2","0","5","2015, 2021","2018","7"
"Cozy Cove","423	","Idaho","SNOTEL","Valley","5400","44.28846","-115.65508","170501200403	","December 9, 2021, end of day ","12-10-2021, 12:14 PM MST",,,,,,,,,,,,,,,,"9","8","1","21","2012","2010","11"
"Crab Creek","424	","Idaho","SNOTEL","Clark","6900","44.437","-111.99384","170402140108	","December 9, 2021, end of day ","12-10-2021, 12:14 PM MST","6",,,"60","60","67","13","13","-4","14","13","1","Lowest",,,"10","10","6","21","2008, 2009, 2021","2010","15"
"Crater Meadows","425	","Idaho","SNOTEL","Clearwater","5960","46.56394","-115.28903","170603070502	","December 9, 2021, end of day ","12-10-2021, 12:14 PM MST",,,,,,,,,,,,,,,,"37","34","20","54","2002","2003","21"
"Crazyman Flat","1010	","Oregon","SNOTEL","Klamath","6180","42.6381","-120.94917","180102020101	","December 9, 2021, end of day ","12-10-2021, 12:14 PM MST","0",,,"0","0","0","0","0","-7","0","21","1","Lowest",,,"11","7","0","35","2021","2001","21"
"Creamers Field","1302	","Alaska","SNOTEL","Fairbanks North Star","440","64.86534","-147.73617","190803060907	","December 9, 2021, end of day ","12-10-2021, 12:14 PM MST","6",,,"100","100","100",,,"0",,"1","1",,,,"6","6","6","6","2021","2021","1"
"Crescent Lake #1","2002	","Minnesota","SCAN","Sherburne","980","45.41667","-93.95","070102030503	","December 9, 2021, end of day ","12-10-2021, 12:14 PM MST","1",,,"50","100","50","7","7","0","60","7","6",,,,"2","1","0","14","2015, 2016, 2020, more","2012","16"
"Crosho","426	","Colorado","SNOTEL","Rio Blanco","9100","40.16745","-107.0575","140500010106	","December 9, 2021, end of day ","12-10-2021, 12:14 PM MST","19",,,"119","119","100","28","37","3","72","6","13",,,,"16","16","4","23","2020","2003, 2005","19"
"Crow Creek","1045	","Wyoming","SNOTEL","Albany","8330","41.2287","-105.38278","101900090104	","December 9, 2021, end of day ","12-10-2021, 12:14 PM MST",,,,,,,,,,,,,,,,"10","11","0","21","2012, 2017","2009","18"
"Crowder Flat","977	","California","SNOTEL","Modoc","5170","41.89318","-120.75202","180102040103	","December 9, 2021, end of day ","12-10-2021, 12:14 PM MST","0",,,"0","0",,"0","0","-1","45","13","1","Lowest",,,"2","1","0","16","2018, 2020, 2021, more","2001","23"
"Crystal Lake","427	","Montana","SNOTEL","Fergus","6050","46.78942","-109.51205","100401030204	","December 9, 2021, end of day ","12-10-2021, 12:14 PM MST","8",,,"47","57","89","14","15","-6","11","17","1","Lowest",,,"17","14","8","39","2007, 2015, 2021","2005","19"
"Css Lab","428	","California","SNOTEL","Nevada","6894","39.32565","-120.36807","180201250602	","December 9, 2021, end of day ","12-10-2021, 12:14 PM MST",,,,,,,,,,,,,,,,"18","16","0","47","2008","2010","16"
"Culebra #2","430	","Colorado","SNOTEL","Costilla","10500","37.20945","-105.19959","130100020902	","December 9, 2021, end of day ","12-10-2021, 12:14 PM MST",,,,,,,,,,,,,,,,"17","17","5","27","2010","2007, 2013","18"
"Cumbres Trestle","431	","Colorado","SNOTEL","Conejos","10040","37.01878","-106.45179","130201020203	","December 9, 2021, end of day ","12-10-2021, 12:14 PM MST","10",,,"37","43","100","11","12","-13","6","18","2","2nd Lowest",,,"27","23","8","61","2005","2009","19"
"Currant Creek","432	","Utah","SNOTEL","Wasatch","7915","40.35747","-111.08993","140600040401	","December 9, 2021, end of day ","12-10-2021, 12:14 PM MST","7",,,"70","70","100","18","19","-3","26","15","5",,,,"10","10","2","19","2008, 2017","2019","20"
"Daisy Peak","919	","Montana","SNOTEL","Meagher","7600","46.66858","-110.33022","100402010106	","December 9, 2021, end of day ","12-10-2021, 12:14 PM MST","3",,,"21","21","60","6","7","-11","0","19","1","Lowest",,,"14","14","3","24","2021","2009","19"
"Daly Creek","433	","Montana","SNOTEL","Ravalli","5780","46.18367","-113.8533","170102050901	","December 9, 2021, end of day ","12-10-2021, 12:14 PM MST","6",,,"55","60","100","14","14","-4","11","18","1","Lowest",,,"11","10","6","17","2002, 2019, 2021","2005","20"
"Daly Lake","434	","Oregon","SNOTEL","Linn","3690","44.52147","-122.08718","170900060101	","December 9, 2021, end of day ","12-10-2021, 12:14 PM MST","3",,,"50","75","100","6","5","-1","47","10","9",,,,"6","4","0","23","2014, 2015, 2019, more","2005","18"
"Daniel Fish Hatchery","2242	","Wyoming","ACIS","Sublette","7340","42.91666","-110.13333","140401010701	","December 9, 2021, end of day ","12-10-2021, 12:14 PM MST",,,,,,,,,,,,,,,,"5","5","0","16","1994, 1998, 2017","2001","31"
"Daniels-Strawberry","435	","Utah","SNOTEL","Wasatch","8008","40.2953","-111.25677","140600040101	","December 9, 2021, end of day ","12-10-2021, 12:14 PM MST","10",,,"67","67","100","19","20","-5","23","18","6",,,,"15","15","4","28","2008","2001","23"
"Darkhorse Lake","436	","Montana","SNOTEL","Beaverhead","8945","45.17367","-113.58448","100200040301	","December 9, 2021, end of day ","12-10-2021, 12:14 PM MST","25",,,"71","69","96","26","26","-11","16","17","4",,,,"35","36","18","55","2002","2007","20"
"Deadman Creek","437	","Montana","SNOTEL","Meagher","6450","46.79279","-110.67545","100301030401	","December 9, 2021, end of day ","12-10-2021, 12:14 PM MST",,,,,,,,,,,,,,,,"13","12","5","26","2015","2005","18"
"Deadman Hill","438	","Colorado","SNOTEL","Larimer","10220","40.80571","-105.76993","101900070502	","December 9, 2021, end of day ","12-10-2021, 12:14 PM MST","16",,,"62","62","100","15","20","-10","0","19","1","Lowest",,,"26","26","16","34","2021","2013, 2019","19"
"Deadwood Summit","439	","Idaho","SNOTEL","Valley","6860","44.54514","-115.5638","170501200401	","December 9, 2021, end of day ","12-10-2021, 12:14 PM MST",,,,,,,,,,,,,,,,"37","36","15","81","2002","2012","19"
"Deer Park","923	","Wyoming","SNOTEL","Fremont","9700","42.59076","-108.90273","100800030101	","December 9, 2021, end of day ","12-10-2021, 12:14 PM MST","13",,,"65","72","87","20","21","-5","13","21","3",,,,"20","18","5","50","1999","2004","24"
"Defiance Mines","1210	","Nevada","SNOTEL","White Pine","9302","39.08527","-114.89977","160600081002	","December 9, 2021, end of day ","12-10-2021, 12:14 PM MST",,,,,,,,,,,,,,,,"10","7","0","19","2017","2013","9"
"Derr.","440	","Oregon","SNOTEL","Wheeler","5850","44.4465","-119.93012","170703040401	","December 9, 2021, end of day ","12-10-2021, 12:14 PM MST","1",,,"10","11","50","2","2","-8","12","15","1","Lowest",,,"10","9","1","24","2008, 2017, 2021","2005","17"
"Diamond Lake","442	","Oregon","SNOTEL","Douglas","5280","43.18787","-122.14003","171003010204	","December 9, 2021, end of day ","12-10-2021, 12:14 PM MST","0",,,"0","0","0","0","0","-5","18","15","1","Lowest",,,"6","5","0","20","2008, 2014, 2021, more","2005","18"
"Diamond Peak","443	","Nevada","SNOTEL","Eureka","8017","39.56361","-115.84421","160600051503	","December 9, 2021, end of day ","12-10-2021, 12:14 PM MST","7",,,"117","100","78","26","25","0","67","7","10",,,,"6","7","0","13","2008","2007","19"
"Dills Camp","444	","Utah","SNOTEL","Sanpete","9228","39.04554","-111.46875","140700020201	","December 9, 2021, end of day ","12-10-2021, 12:14 PM MST","10",,,"71","77","100","21","22","-3","28","14","6",,,,"14","13","1","29","2017","2004","19"
"Disaster Peak","445	","Nevada","SNOTEL","Humboldt","6260","41.96737","-118.18934","160402010201	","December 9, 2021, end of day ","12-10-2021, 12:14 PM MST","0",,,"0","0","0","0","0","-2","24","14","1","Lowest",,,"3","2","0","12","2017, 2020, 2021, more","2018","18"
"Dismal Swamp","446	","California","SNOTEL","Modoc","7360","41.99127","-120.18033","171200070304	","December 9, 2021, end of day ","12-10-2021, 12:14 PM MST","5",,,"29","31","31","6","6","-11","7","15","1","Lowest",,,"17","16","5","40","2008, 2021","2010","16"
"Divide","448	","Montana","SNOTEL","Madison","7800","44.79317","-112.05645","100200030102	","December 9, 2021, end of day ","12-10-2021, 12:14 PM MST",,,,,,,,,,,,,,,,"14","15","6","24","2006, 2020","2000","23"
"Divide Peak","449	","Wyoming","SNOTEL","Carbon","8880","41.30398","-107.15241","140500030203	","December 9, 2021, end of day ","12-10-2021, 12:14 PM MST",,,,,,,,,,,,,,,,"23","26","10","36","2014","2004","18"
"Dollarhide Summit","450	","Idaho","SNOTEL","Blaine","8420","43.6025","-114.67417","170402190201	","December 9, 2021, end of day ","12-10-2021, 12:14 PM MST","19",,,"73","79","90","23","24","-5","23","18","6",,,,"26","24","10","48","2008","2012","23"
"Dome Lake","451	","Wyoming","SNOTEL","Sheridan","8880","44.57462","-107.29537","100901010102	","December 9, 2021, end of day ","12-10-2021, 12:14 PM MST","12",,,"75","75","86","21","21","-4","17","16","4",,,,"16","16","9","24","2015","2011","19"
"Dome Mountain","1A19P	","British Columbia","Cooperator Snow Sensors","	","5801","53.61667","-121.01667","	","December 9, 2021, end of day ","12-10-2021, 12:14 PM MST",,,,,,,,,,,,,,,,"29","34","0","52","2006, 2007, 2009","2019","14"
"Donkey Reservoir","452	","Utah","SNOTEL","Wayne","9799","38.2084","-111.47412","140700030305	","December 9, 2021, end of day ","12-10-2021, 12:14 PM MST","8",,,"73","89","100","21","21","-1","44","11","7",,,,"11","9","0","29","2017","2004","19"
"Dorsey Basin","453	","Nevada","SNOTEL","Elko","7903","40.89343","-115.21104","160401010604	","December 9, 2021, end of day ","12-10-2021, 12:14 PM MST",,,,,,,,,,,,,,,,"11","10","0","26","2008","2010","21"
"Draw Creek","454	","Nevada","SNOTEL","Elko","7332","41.661","-115.3234","160401010403	","December 9, 2021, end of day ","12-10-2021, 12:14 PM MST","0",,,"0","0",,"0","0","-9","11","18","1","Lowest",,,"9","9","0","22","2008, 2012, 2021","2016","20"
"Dry Bread Pond","455	","Utah","SNOTEL","Cache","8302","41.41289","-111.5377","160102030101	","December 9, 2021, end of day ","12-10-2021, 12:14 PM MST","10",,,"53","56","100","14","16","-8","0","25","1","Lowest",,,"19","18","10","37","2021","2004","25"
"Dry Creek","1243	","Nevada","SNOTEL","Elko","6555","40.8638","-115.22014","160401010601	","December 9, 2021, end of day ","12-10-2021, 12:14 PM MST","3",,,"75","75","100","15","17","-1","38","6","3",,,,"4","4","1","8","2015, 2020","2013","9"
"Dry Fork","906	","Utah","SNOTEL","Salt Lake","7093","40.56533","-112.17343","160202040106	","December 9, 2021, end of day ","12-10-2021, 12:14 PM MST","8",,,"57","57","100","15","15","-6","29","13","3",,,,"14","14","5","29","2020","2019","18"
"Dry Lake","457	","Colorado","SNOTEL","Routt","8400","40.53397","-106.7813","140500010409	","December 9, 2021, end of day ","12-10-2021, 12:14 PM MST","20",,,"83","91","100","29","29","-2","43","14","9",,,,"24","22","13","41","2012, 2017, 2020","2003","24"
"Dungeness","943	","Washington","SNOTEL","Clallam","4010","47.87224","-123.0788","171100200301	","December 9, 2021, end of day ","12-10-2021, 12:14 PM MST","0",,,"0","0","0","0","0","-5","22","19","1","Lowest",,,"7","5","0","24","2018, 2019, 2021, more","1998","24"
"Dupuyer Creek","458	","Montana","SNOTEL","Teton","5750","48.06341","-112.7573","100302010501	","December 9, 2021, end of day ","12-10-2021, 12:14 PM MST","7",,,"100","117","88","18","19","1","65","8","12",,,,"7","6","0","22","2017","2019","21"
"EF Blacks Fork GS","1163	","Utah","SNOTEL","Summit","9360","40.88472","-110.54056","140401070302	","December 9, 2021, end of day ","12-10-2021, 12:14 PM MST","5",,,"45","50","83","10","10","-5","9","11","1","Lowest",,,"11","10","5","16","2020, 2021","2010, 2019","12"
"Eagle Lake","2192	","California","SCAN","Lassen","5134","40.6175","-120.72472","180800030305	","December 9, 2021, end of day ","12-10-2021, 12:14 PM MST",,,,,,,,,,,,,,,,"2","0","0","6","2014, 2015","2016","3"
"Eagle Summit","960	","Alaska","SNOTEL","Yukon-Koyukuk","3650","65.48588","-145.41212","190804010801	","December 9, 2021, end of day ","12-10-2021, 12:14 PM MST","10",,,"62","125","56","48","62","2","60","9","12",,,,"16","8","3","77","2007, 2011","2004","21"
"East Boulder Mine","1105	","Montana","SNOTEL","Sweet Grass","6335","45.50381","-110.08019","100700020701	","December 9, 2021, end of day ","12-10-2021, 12:14 PM MST","2",,,"33","33","25","7","8","-4","8","13","1","Lowest",,,"6","6","2","13","2020, 2021","2010","14"
"East Palmer","953	","Alaska","SNOTEL","Matanuska-Susitna","230","61.59858","-149.09637","190204020709	","December 9, 2021, end of day ","12-10-2021, 12:14 PM MST","7",,,"140","140","88","44","44","2","100","1","2","2nd Lowest",,,"5","5","3","7","2020","2021","2"
"East Rim Divide","460	","Wyoming","SNOTEL","Sublette","7930","43.13097","-110.2023","170401030203	","December 9, 2021, end of day ","12-10-2021, 12:14 PM MST","3",,,"20","19","100","6","7","-13","0","11","1","Lowest",,,"15","16","3","22","2021","2013","11"
"East Willow Creek","461	","Utah","SNOTEL","Grand","8302","39.31213","-109.53179","140600060205	","December 9, 2021, end of day ","12-10-2021, 12:14 PM MST","15",,,"150","167","100","41","43","6","67","7","13",,,,"10","9","0","21","2014, 2017","2009","19"
"Easy Pass","998	","Washington","SNOTEL","Whatcom","5270","48.85933","-121.43895","171100010101	","December 9, 2021, end of day ","12-10-2021, 12:14 PM MST","222",,,"317","600","100","102","102","185","100","1","6","Highest",,,"70","37","13","222","2019","2021","6"
"Ebbetts Pass","462	","California","SNOTEL","Alpine","8661","38.5497","-119.80468","160502010104	","December 9, 2021, end of day ","12-10-2021, 12:14 PM MST","12",,,"48","57","48","12","12","-9","19","18","4",,,,"25","21","4","54","2011","2019","22"
"Echo Lake","936	","Colorado","SNOTEL","Clear Creek","10600","39.65627","-105.59345","101900020801	","December 9, 2021, end of day ","12-10-2021, 12:14 PM MST","0",,,"0","0","0","0","0","-10","4","23","1","Lowest",,,"11","10","0","20","2012, 2021","2006","24"
"Echo Peak","463	","California","SNOTEL","El Dorado","7653","38.849","-120.0795","160501010303	","December 9, 2021, end of day ","12-10-2021, 12:14 PM MST","8",,,"40","44","30","8","8","-10","21","16","3",,,,"20","18","0","52","2008","2004","20"
"Eilertson Meadows","464	","Oregon","SNOTEL","Baker","5510","44.86887","-118.11387","170502030404	","December 9, 2021, end of day ","12-10-2021, 12:14 PM MST","2",,,"29","25","50","6","6","-6","22","15","3",,,,"7","8","0","16","2014","2010","19"
"El Diente Peak","465	","Colorado","SNOTEL","Dolores","10000","37.78617","-108.02155","140300020202	","December 9, 2021, end of day ","12-10-2021, 12:14 PM MST",,,,,,,,,,,,,,,,"17","15","1","34","2017","2007","21"
"Elbow Lake","910	","Washington","SNOTEL","Whatcom","3040","48.69092","-121.90893","171100040401	","December 9, 2021, end of day ","12-10-2021, 12:14 PM MST",,,,,,,,,,,,,,,,"24","27","0","56","2002, 2014, 2019","1998, 2001","25"
"Elk Butte","466	","Idaho","SNOTEL","Clearwater","5690","46.83998","-116.12233","170603080701	","December 9, 2021, end of day ","12-10-2021, 12:14 PM MST",,,,,,,,,,,,,,,,"26","26","11","55","2019","2001","22"
"Elk Cabin","921	","New Mexico","SNOTEL","Santa Fe","8210","35.7043","-105.80675","130202010102	","December 9, 2021, end of day ","12-10-2021, 12:14 PM MST","1",,,"33","33","50","2","7","-2","25","16","5",,,,"3","3","0","8","2014, 2015, 2017, more","2009","21"
"Elk Peak","1106	","Montana","SNOTEL","Meagher","7600","46.4845","-110.7125","100402010203	","December 9, 2021, end of day ","12-10-2021, 12:14 PM MST","7",,,"44","39","88","10","10","-11","15","12","2","2nd Lowest",,,"16","18","5","27","2016","2017","14"
"Elk Peak SC","536	","Montana","SNOLITE","Meagher","8000","46.47642","-110.72065","100301030104	","December 9, 2021, end of day ","12-10-2021, 12:14 PM MST","3",,,"23","23","50","5","5","-10","0","3","1","Lowest",,,"13","13","3","23","2021","2019","3"
"Elk River","467	","Colorado","SNOTEL","Routt","8700","40.84781","-106.96871","140500010206	","December 9, 2021, end of day ","12-10-2021, 12:14 PM MST","26",,,"130","130","100","33","39","6","84","4","17",,,,"20","20","11","30","2020","2019","20"
"Elkhart Park G.S.","468	","Wyoming","SNOTEL","Sublette","9400","43.00657","-109.75893","140401020103	","December 9, 2021, end of day ","12-10-2021, 12:14 PM MST",,,,,,,,,,,,,,,,"15","15","10","19","2020","2016","6"
"Elkhead Divide","1252	","Colorado","SNOTEL","Routt","8780","40.79649","-107.10122","140500010601	","December 9, 2021, end of day ","12-10-2021, 12:14 PM MST","22",,,"116","110","100","32","31","2","60","3","4",,,,"19","20","12","29","2017, 2020","2019","6"
"Elliot Ridge","1120	","Colorado","SNOTEL","Summit","10520","39.864","-106.4246","140100020602	","December 9, 2021, end of day ","12-10-2021, 12:14 PM MST","14",,,"78","74","100","18","20","-5","25","10","3",,,,"18","19","9","31","2017","2013","13"
"Emery Creek","469	","Montana","SNOTEL","Flathead","4350","48.43412","-113.93725","170102090703	","December 9, 2021, end of day ","12-10-2021, 12:14 PM MST",,,,,,,,,,,,,,,,"13","14","3","25","2015","2013","18"
"Emigrant Springs","470	","Oregon","SNOTEL","Umatilla","3800","45.55808","-118.45383","170701030501	","December 9, 2021, end of day ","12-10-2021, 12:14 PM MST","2",,,"50","50","100","8","8","-2","40","13","8",,,,"4","4","0","14","2015, 2019, 2020, more","2001","21"
"Emigrant Summit","471	","Idaho","SNOTEL","Bear Lake","7390","42.36055","-111.56085","160102020206	","December 9, 2021, end of day ","12-10-2021, 12:14 PM MST",,,,,,,,,,,,,,,,"18","14","5","38","2014","2010","19"
"Esther Island","1071	","Alaska","SNOTEL","Valdez-Cordova","50","60.798","-148.0857","190202011605	","December 9, 2021, end of day ","12-10-2021, 12:14 PM MST","40",,,"500",,"98","93","83","40","100","1","8","Highest",,,"8","0","0","40","2017, 2018, 2019, more","2021","8"
"Evening Star","472	","Wyoming","SNOTEL","Park","9200","44.65258","-109.78422","100700060301	","December 9, 2021, end of day ","12-10-2021, 12:14 PM MST","23",,,"62","64","92","24","26","-13","6","18","1","Lowest",,,"37","36","23","51","2006, 2021","2017","19"
"Exit Glacier","1092	","Alaska","SNOTEL","Kenai Peninsula","400","60.19033","-149.62117","190202020508	","December 9, 2021, end of day ","12-10-2021, 12:14 PM MST",,,,,,,,,,,,,,,,"8","5","0","30","2018","2020","10"
"Fallen Leaf","473	","California","SNOTEL","El Dorado","6242","38.93403","-120.0545","160501010401	","December 9, 2021, end of day ","12-10-2021, 12:14 PM MST","3",,,"60","100","100","9","9","0","57","10","11",,,,"5","3","0","19","2012, 2014, 2017, more","2001","22"
"Farmington","474	","Utah","SNOTEL","Davis","7902","40.97462","-111.80975","160201020502	","December 9, 2021, end of day ","12-10-2021, 12:14 PM MST","20",,,"65","71","100","20","21","-8","21","20","6",,,,"31","28","13","69","2015, 2017","2004","25"
"Farmington Lower","1054	","Utah","SNOTEL","Davis","6779","40.992","-111.81702","160201020502	","December 9, 2021, end of day ","12-10-2021, 12:14 PM MST","7",,,"41","47","100","10","12","-8","22","15","3",,,,"17","15","5","36","2012","2004","19"
"Farnsworth Lake","475	","Utah","SNOTEL","Sevier","9623","38.77246","-111.67662","160300030405	","December 9, 2021, end of day ","12-10-2021, 12:14 PM MST","22",,,"73","81","100","26","30","-5","28","19","7",,,,"30","27","9","134","2017","1996","26"
"Farson 2NNE","3170	","Wyoming","ACIS","Sweetwater","6590","42.11666","-109.43333","140401040306	","December 9, 2021, end of day ","12-10-2021, 12:14 PM MST",,,,,,,,,,,,,,,,"1","1","0","7","2015, 2017, 2020, more","1955","45"
"Fawn Creek","476	","Nevada","SNOTEL","Elko","7031","41.82098","-116.10153","170501040304	","December 9, 2021, end of day ","12-10-2021, 12:14 PM MST","4",,,"33","33","67","7","7","-8","5","19","2","2nd Lowest",,,"12","12","3","22","2008","2010","20"
"Fernie","2850	","British Columbia","ACIS","	","3290","49.5","-115.05","170101060804	","December 9, 2021, end of day ","12-10-2021, 12:14 PM MST",,,,,,,,,,,,,,,,"8","6","0","29","2002, 2008, 2013","1980, 1996","30"
"Fielding Lake","1268	","Alaska","SNOTEL","Valdez-Cordova","3000","63.20267","-145.6305","190803040302	","December 9, 2021, end of day ","12-10-2021, 12:14 PM MST",,,,,,,,,,,,,,,,"21","18","6","38","2016","2019","7"
"Finley Corrals AM","1274	","Oregon","SNOLITE","Lake","5950","42.45988","-120.78508","180102020402	","December 9, 2021, end of day ","12-10-2021, 12:14 PM MST",,,,,,,,,,,,,,,,"11","10","5","18","2019","2016","6"
"Fish Ck","1305	","Idaho","SNOTEL","Blaine","6330","43.55542","-113.71924","170402210401	","December 9, 2021, end of day ","12-10-2021, 12:14 PM MST","0",,,,,"0",,,"0",,"1","1",,,,"0","0","0","0","2021","2021","1"
"Fish Creek","477	","Oregon","SNOTEL","Harney","7660","42.70992","-118.6321","171200030107	","December 9, 2021, end of day ","12-10-2021, 12:14 PM MST",,,,,,,,,,,,,,,,"21","20","7","41","2002","2010","24"
"Fish Lake","478	","Washington","SNOTEL","Kittitas","3430","47.53565","-121.08553","170300010102	","December 9, 2021, end of day ","12-10-2021, 12:14 PM MST",,,,,,,,,,,,,,,,"22","23","0","42","2002","2012","21"
"Fish Lake Utah","1149	","Utah","SNOTEL","Sevier","8798","38.50455","-111.76693","140700030108	","December 9, 2021, end of day ","12-10-2021, 12:14 PM MST","9",,,"112","90","100","27","26","-1","45","7","6",,,,"8","10","0","17","2017","2019","12"
"Fish Lk.","479	","Oregon","SNOTEL","Jackson","4660","42.3801","-122.34943","171003070801	","December 9, 2021, end of day ","12-10-2021, 12:14 PM MST","1",,,"17","20","100","2","2","-4","27","12","4",,,,"6","5","0","16","2012, 2014, 2015","2010","16"
"Fisher Creek","480	","Montana","SNOTEL","Park","9100","45.06235","-109.94488","100700060202	","December 9, 2021, end of day ","12-10-2021, 12:14 PM MST","30",,,"73","75","97","27","26","-10","13","21","4",,,,"41","40","22","59","2002","2007","24"
"Five Points Lake","481	","Utah","SNOTEL","Duchesne","10943","40.71785","-110.46721","140600030701	","December 9, 2021, end of day ","12-10-2021, 12:14 PM MST","18",,,"86","86","100","27","29","-3","45","12","9",,,,"21","21","11","47","2009","2004","21"
"Flattop Mtn.","482	","Montana","SNOTEL","Flathead","6300","48.80225","-113.85713","170102070501	","December 9, 2021, end of day ","12-10-2021, 12:14 PM MST","29",,,"64","63","97","21","21","-17","10","19","3",,,,"45","46","24","68","2002","2012","21"
"Flower Mountain","1285	","Alaska","SNOTEL","Haines","2510","59.39617","-136.28123","190103031206	","December 9, 2021, end of day ","12-10-2021, 12:14 PM MST",,,,,,,,,,,,,,,,"32","23","22","58","2017","2020","4"
"Fontenelle Dam","3396	","Wyoming","ACIS","Lincoln","6480","41.98333","-110.06666","140401030602	","December 9, 2021, end of day ","12-10-2021, 12:14 PM MST",,,,,,,,,,,,,,,,"1","0","0","6","2016, 2017, 2020, more","2019","30"
"Fool Creek","1186	","Colorado","SNOTEL","Grand","11150","39.8687","-105.8675","140100010203	","December 9, 2021, end of day ","12-10-2021, 12:14 PM MST","20",,,"80","83","100","28","26","-4","20","9","3",,,,"25","24","19","34","2014, 2020","2019","11"
"Forestdale Creek","1049	","California","SNOTEL","Alpine","8017","38.68245","-119.9597","160502010301	","December 9, 2021, end of day ","12-10-2021, 12:14 PM MST","7",,,"30","39","35","6","7","-11","6","18","1","Lowest",,,"23","18","7","53","2008, 2021","2004","19"
"Fort Valley","1121	","Arizona","SNOTEL","Coconino","7350","35.26806","-111.74486","150200150102	","December 9, 2021, end of day ","12-10-2021, 12:14 PM MST","3",,,"100",,"100","20","20","3","62","6","9",,,,"3","0","0","15","2016, 2017, 2020, more","2009","14"
"Fort Yukon","961	","Alaska","SNOTEL","Yukon-Koyukuk","430","66.5705","-145.24553","190705062100	","December 9, 2021, end of day ","12-10-2021, 12:14 PM MST","6",,,"60","60","86","30","30","-4","19","14","4",,,,"10","10","3","15","2016","2010","17"
"Fourmile Lake","483	","Oregon","SNOTEL","Klamath","5970","42.43933","-122.2288","180102030202	","December 9, 2021, end of day ","12-10-2021, 12:14 PM MST","0",,,"0","0","0","0","0","-14","4","23","1","Lowest",,,"18","14","0","56","2008, 2021","1998","24"
"Franklin Basin","484	","Idaho","SNOTEL","Franklin","8140","42.0505","-111.6012","160102020501	","December 9, 2021, end of day ","12-10-2021, 12:14 PM MST","15",,,"60","65","100","17","19","-8","21","20","4",,,,"25","23","13","47","1999, 2015","2001","25"
"Fredonyer Peak","1277	","California","SNOTEL","Lassen","7208","40.68799","-120.60805","180800030304	","December 9, 2021, end of day ","12-10-2021, 12:14 PM MST","1",,,"17","17","10","2","3","-5","20","5","2","2nd Lowest",,,"6","6","0","13","2017","2019","6"
"Fremont Pass","485	","Colorado","SNOTEL","Summit","11400","39.37991","-106.19681","140100020301	","December 9, 2021, end of day ","12-10-2021, 12:14 PM MST","24",,,"100","100","100","25","32","0","60","7","9",,,,"24","24","14","37","2012","2007","16"
"Frisco Divide","486	","New Mexico","SNOTEL","Catron","8000","33.73646","-108.94502","150400040303	","December 9, 2021, end of day ","12-10-2021, 12:14 PM MST",,,,,,,,,,,,,,,,"2","1","0","10","2017, 2018, 2020, more","2009","19"
"Frohner Meadow","487	","Montana","SNOTEL","Jefferson","6480","46.43545","-112.19277","100301011305	","December 9, 2021, end of day ","12-10-2021, 12:14 PM MST","5",,,"56","56","83","14","16","-4","16","17","1","Lowest",,,"9","9","5","13","2007, 2015, 2021, more","2009, 2010, 2011, more","20"
"Frostbite Bottom","641	","Alaska","SNOTEL","Matanuska-Susitna","2700","61.74722","-149.2688","190205051202	","December 9, 2021, end of day ","12-10-2021, 12:14 PM MST","26",,,"90","100","96","35","35","0","50","2","2",,,,"29","26","23","39","2020","2019","3"
"Fry","488	","Arizona","SNOTEL","Coconino","7200","35.07297","-111.84374","150602020501	","December 9, 2021, end of day ","12-10-2021, 12:14 PM MST","2",,,"50","67","100","7","7","-1","44","11","9",,,,"4","3","0","16","2014, 2017, 2020, more","2004","19"
"Fry Canyon","1262	","Nevada","SNOTEL","Elko","6798","41.57022","-115.93645","160401020101	","December 9, 2021, end of day ","12-10-2021, 12:14 PM MST","3",,,"75","75","100","16","19","-1","43","5","4",,,,"4","4","0","12","2014","2018","8"
"GBRC HQ","1221	","Utah","SNOTEL","Sanpete","8801","39.32019","-111.48827","160300040307	","December 9, 2021, end of day ","12-10-2021, 12:14 PM MST","10",,,"83","83","100","19","21","-2","44","6","5",,,,"12","12","0","22","2017","2013","10"
"GBRC Meadows","1222	","Utah","SNOTEL","Sanpete","9858","39.30229","-111.45383","160300040307	","December 9, 2021, end of day ","12-10-2021, 12:14 PM MST","19",,,"106","106","100","28","32","1","67","4","6",,,,"18","18","8","28","2017, 2020","2013","10"
"Galena","489	","Idaho","SNOTEL","Blaine","7470","43.87722","-114.6725","170402190101	","December 9, 2021, end of day ","12-10-2021, 12:14 PM MST","10",,,"53","56","71","16","16","-8","6","16","2","2nd Lowest",,,"19","18","6","43","2008","2012","17"
"Galena AK","429	","Alaska","SNOTEL","Yukon-Koyukuk","410","64.69662","-156.71497","190902051104	","December 9, 2021, end of day ","12-10-2021, 12:14 PM MST","16",,,"107","107","100","52","52","1","67","2","3","2nd Highest",,,"15","15","11","18","2018","2019","4"
"Galena Summit","490	","Idaho","SNOTEL","Blaine","8780","43.87497","-114.71363","170402190101	","December 9, 2021, end of day ","12-10-2021, 12:14 PM MST","19",,,"73","79","73","26","27","-5","25","19","6",,,,"26","24","13","51","2008","2004","25"
"Gallegos Peak","491	","New Mexico","SNOTEL","Taos","9800","36.19446","-105.55795","130201010502	","December 9, 2021, end of day ","12-10-2021, 12:14 PM MST","1",,,"9","9","33","2","2","-10","5","20","2","2nd Lowest",,,"11","11","0","20","2017","2013","21"
"Garden City Summit","1114	","Utah","SNOTEL","Cache","7705","41.9215","-111.4693","160102010106	","December 9, 2021, end of day ","12-10-2021, 12:14 PM MST","8",,,"44","44","100","13","14","-10","0","13","1","Lowest",,,"18","18","8","33","2021","2010","13"
"Gardner Peak","1066	","Utah","SNOTEL","Washington","8322","37.40083","-113.45988","150100080701	","December 9, 2021, end of day ","12-10-2021, 12:14 PM MST","11",,,"100","100","100","23","22","0","53","9","9",,,,"11","11","0","24","2017","2019","18"
"Garfield R.S.","492	","Idaho","SNOTEL","Blaine","6560","43.6104","-113.9308","170402210301	","December 9, 2021, end of day ","12-10-2021, 12:14 PM MST","2",,,"40","33","67","5","6","-4","25","4","2","2nd Lowest",,,"5","6","1","9","2017","2019","5"
"Garita Peak","1173	","New Mexico","SNOTEL","Rio Arriba","10160","36.005","-106.54838","130202020201	","December 9, 2021, end of day ","12-10-2021, 12:14 PM MST","0",,,"0","0",,"0","0","-3","20","5","1","Lowest",,,"6","3","0","19","2017, 2021","2019","6"
"Garver Creek","918	","Montana","SNOTEL","Lincoln","4250","48.97523","-115.81915","170101030202	","December 9, 2021, end of day ","12-10-2021, 12:14 PM MST",,,,,,,,,,,,,,,,"11","12","4","18","2008, 2018","2011, 2013","19"
"George Creek","1151	","Utah","SNOTEL","Box Elder","8964","41.91562","-113.41154","170402100401	","December 9, 2021, end of day ","12-10-2021, 12:14 PM MST","21",,,"105","117","100","30","30","3","73","4","9",,,,"20","18","9","33","2020","2010","12"
"Gerber Reservoir","945	","Oregon","SNOTEL","Klamath","4890","42.2062","-121.1334","180102040508	","December 9, 2021, end of day ","12-10-2021, 12:14 PM MST","0",,,"0",,,"0","0","0","48","13","1","Lowest",,,"2","0","0","10","2019, 2020, 2021, more","2001","24"
"Giveout","493	","Idaho","SNOTEL","Bear Lake","6930","42.4132","-111.1663","160102010401	","December 9, 2021, end of day ","12-10-2021, 12:14 PM MST","1",,,"12","14","50","3","3","-6","0","7","1","Lowest",,,"8","7","1","14","2021","2018","7"
"Glacial Ridge","2050	","Minnesota","SCAN","Polk","1125","47.71667","-96.26667","090203030503	","December 9, 2021, end of day ","12-10-2021, 12:14 PM MST",,,,,,,,,,,,,,,,"4","2","0","20","2006, 2009, 2015, more","2010","12"
"Glen Cove","1057	","Colorado","SNOTEL","Teller","11460","38.87583","-105.07367","110200030201	","December 9, 2021, end of day ","12-10-2021, 12:14 PM MST","0",,,"0","0","0","0","0","-4","6","17","1","Lowest",,,"5","4","0","12","2017, 2021","2004","18"
"Gobblers Knob","962	","Alaska","SNOTEL","Yukon-Koyukuk","2030","66.745","-150.6675","190901020403	","December 9, 2021, end of day ","12-10-2021, 12:14 PM MST","2",,,"40","50","29","14","14","-2","31","12","5",,,,"5","4","0","15","2014, 2015","2013","17"
"Golconda","1195	","Nevada","SNOTEL","Humboldt","6616","40.88358","-117.58812","160401080102	","December 9, 2021, end of day ","12-10-2021, 12:14 PM MST","4",,,"100","100","100","17","20","0","70","4","6",,,,"4","4","0","11","2014, 2020","2013","11"
"Gold Axe Camp","1159	","Washington","SNOTEL","Okanogan","5360","48.9516","-118.9864","170200021204	","December 9, 2021, end of day ","12-10-2021, 12:14 PM MST","2",,,"22","22","50","5","5","-7","9","11","1","Lowest",,,"9","9","2","16","2019, 2021","2012","12"
"Gold Basin","1304	","Utah","SNOTEL","San Juan","10076","38.46516","-109.26332","140300050401	","December 9, 2021, end of day ","12-10-2021, 12:14 PM MST","30",,,"100","100","100",,,"0",,"1","1",,,,"30","30","30","30","2021","2021","1"
"Gold Center","494	","Oregon","SNOTEL","Grant","5410","44.7638","-118.3117","170702020202	","December 9, 2021, end of day ","12-10-2021, 12:14 PM MST","3",,,"30","30","100","7","8","-7","12","16","3",,,,"10","10","0","22","2008","2004","18"
"Gold Mountain","1256	","Washington","SNOTEL","Ferry","4390","48.18934","-118.4559","170200011703	","December 9, 2021, end of day ","12-10-2021, 12:14 PM MST","0",,,"0","0","0","0","0","-4","14","7","1","Lowest",,,"5","4","0","11","2014, 2021","2016, 2020","8"
"Golden","3210	","British Columbia","ACIS","	","2583","51.3","-116.9833","170200170000	","December 9, 2021, end of day ","12-10-2021, 12:14 PM MST",,,,,,,,,,,,,,,,"6","4","0","16","2002, 2009, 2017, more","1981","37"
"Gooseberry RS","495	","Utah","SNOTEL","Sevier","7944","38.80034","-111.68333","160300030405	","December 9, 2021, end of day ","12-10-2021, 12:14 PM MST","8",,,"89","89","100","21","22","-1","37","13","8",,,,"9","9","0","17","2017, 2020","2003","20"
"Gooseberry RS Up","1184	","Utah","SNOTEL","Sevier","8396","38.7882","-111.68892","160300030405	","December 9, 2021, end of day ","12-10-2021, 12:14 PM MST","10",,,"91","77","100","24","25","-3","30","8","4",,,,"11","13","0","16","2017","2019","11"
"Government Camp","353402	","Oregon","ACIS","Clackamas","3980","45.3014","-121.7417","170800010201	","December 9, 2021, end of day ","12-10-2021, 12:14 PM MST",,,,,,,,,,,,,,,,"19","12","0","60","1975, 2002, 2014, more","1994","70"
"Government Corrals","1250	","Oregon","SNOLITE","Harney","7400","42.04308","-118.3195","171200090201	","December 9, 2021, end of day ","12-10-2021, 12:14 PM MST","0",,,"0","0","0","0","0","-11","0","9","1","Lowest",,,"9","11","0","13","2021","2016, 2018, 2019","9"
"Graham Guard Sta.","496	","Idaho","SNOTEL","Elmore","5690","43.9538","-115.27387","170501110303	","December 9, 2021, end of day ","12-10-2021, 12:14 PM MST",,,,,,,,,,,,,,,,"13","10","1","81","2008","1999","24"
"Grand Targhee","1082	","Wyoming","SNOTEL","Teton","9260","43.77933","-110.92783","170402040202	","December 9, 2021, end of day ","12-10-2021, 12:14 PM MST",,,,,,,,,,,,,,,,"50","47","35","63","2008","2010, 2017","15"
"Grandview","956	","Alaska","SNOTEL","Kenai Peninsula","1100","60.60832","-149.06313","190203021001	","December 9, 2021, end of day ","12-10-2021, 12:14 PM MST",,,,,,,,,,,,,,,,"26","24","1","66","2014","2008","14"
"Granite Creek","497	","Wyoming","SNOTEL","Teton","6770","43.34298","-110.43495","170401030304	","December 9, 2021, end of day ","12-10-2021, 12:14 PM MST",,,,,,,,,,,,,,,,"20","18","12","30","2015","2014","9"
"Granite Crk","963	","Alaska","SNOTEL","Southeast Fairbanks","1240","63.94382","-145.39993","190803031306	","December 9, 2021, end of day ","12-10-2021, 12:14 PM MST","16",,,"178","200","94","55","80","8","100","1","20","Highest",,,"9","8","2","16","2002","2019, 2021","21"
"Granite Peak","498	","Nevada","SNOTEL","Humboldt","8503","41.67032","-117.56668","160401090601	","December 9, 2021, end of day ","12-10-2021, 12:14 PM MST","7",,,"44","44","50","10","11","-9","5","22","2","2nd Lowest",,,"16","16","0","37","2008","2004","23"
"Grano Creek","2E07P	","British Columbia","Cooperator Snow Sensors","	","6148","49.55","-118.66667","170200020403	","December 9, 2021, end of day ","12-10-2021, 12:14 PM MST",,,,,,,,,,,,,,,,"23","22","14","34","2002","2001, 2004","18"
"Grassy Lake","499	","Wyoming","SNOTEL","Teton","7265","44.12612","-110.83435","170402030202	","December 9, 2021, end of day ","12-10-2021, 12:14 PM MST",,,,,,,,,,,,,,,,"32","32","21","46","2002","2005","19"
"Grave Creek","500	","Montana","SNOTEL","Flathead","4300","48.91453","-114.76663","170101010801	","December 9, 2021, end of day ","12-10-2021, 12:14 PM MST",,,,,,,,,,,,,,,,"15","14","3","33","2015","2013","18"
"Grave Springs","501	","Wyoming","SNOTEL","Natrona","8550","43.46643","-107.23977","100902010103	","December 9, 2021, end of day ","12-10-2021, 12:14 PM MST",,,,,,,,,,,,,,,,"11","10","1","20","2020","2019","18"
"Grayback","1058	","Colorado","SNOTEL","Rio Grande","11620","37.47033","-106.53783","130100020101	","December 9, 2021, end of day ","12-10-2021, 12:14 PM MST","0",,,"0","0","0","0","0","-9","0","18","1","Lowest",,,"12","9","0","42","2021","2007","18"
"Green Lake","502	","Washington","SNOTEL","Yakima","5920","46.54741","-121.17093","170300030101	","December 9, 2021, end of day ","12-10-2021, 12:14 PM MST",,,,,,,,,,,,,,,,"21","20","3","44","2002","2012","24"
"Green Mountain","503	","Nevada","SNOTEL","Elko","8185","40.3848","-115.52757","160401030401	","December 9, 2021, end of day ","12-10-2021, 12:14 PM MST","8",,,"57","62","89","15","14","-5","35","14","7",,,,"14","13","2","37","2008","2004","21"
"Green River","4065	","Wyoming","ACIS","Sweetwater","6090","41.53333","-109.46666","140401030610	","December 9, 2021, end of day ","12-10-2021, 12:14 PM MST",,,,,,,,,,,,,,,,"2","2","0","3","2017, 2020","2018, 2019","4"
"Greenpoint","504	","Oregon","SNOTEL","Hood River","3310","45.62237","-121.70415","170701050603	","December 9, 2021, end of day ","12-10-2021, 12:14 PM MST","4",,,"57","100","100","8","7","0","47","9","6",,,,"7","4","0","26","2008, 2017","2006","16"
"Grizzly Peak","505	","Colorado","SNOTEL","Summit","11100","39.64631","-105.86973","140100020201	","December 9, 2021, end of day ","12-10-2021, 12:14 PM MST","19",,,"70","83","100","24","25","-4","33","15","7",,,,"27","23","14","96","2007, 2012","2000","22"
"Gros Ventre Summit","506	","Wyoming","SNOTEL","Teton","8750","43.38939","-110.12943","170401020203	","December 9, 2021, end of day ","12-10-2021, 12:14 PM MST","4",,,"21","21","67","8","8","-15","0","20","1","Lowest",,,"19","19","4","28","2021","2004, 2010","20"
"Grouse Camp","507	","Washington","SNOTEL","Kittitas","5390","47.28107","-120.48771","170300010401	","December 9, 2021, end of day ","12-10-2021, 12:14 PM MST","1",,,"7","7","25","2","2","-14","6","18","1","Lowest",,,"15","15","1","31","2008, 2021","2012","19"
"Grouse Creek Divide","964	","Alaska","SNOTEL","Kenai Peninsula","700","60.25965","-149.34228","190203020902	","December 9, 2021, end of day ","12-10-2021, 12:14 PM MST",,,,,,,,,,,,,,,,"12","9","0","32","2014, 2018, 2019","2020","17"
"Gulkana River","2222	","Alaska","SNOTEL","Valdez-Cordova","1830","62.40962","-145.37513","190201020604	","December 9, 2021, end of day ","12-10-2021, 12:14 PM MST","5",,,"62","71","100","22","21","-2","0","4","1","Lowest",,,"8","7","5","11","2021","2020","4"
"Gunsight Pass","944	","Wyoming","SNOTEL","Sublette","9820","43.38332","-109.87815","170401020102	","December 9, 2021, end of day ","12-10-2021, 12:14 PM MST","10",,,"50","50","91","18","19","-10","5","20","2","2nd Lowest",,,"20","20","9","30","1999","2013","21"
"Gutz Peak","1065	","Utah","SNOTEL","Washington","6763","37.49617","-113.94235","150100100101	","December 9, 2021, end of day ","12-10-2021, 12:14 PM MST","22",,,"367","440","100","63","73","17","100","1","18","Highest",,,"6","5","0","22","2014, 2017, 2020, more","2021","18"
"Hagans Meadow","508	","California","SNOTEL","El Dorado","7742","38.8519","-119.9374","160501010302	","December 9, 2021, end of day ","12-10-2021, 12:14 PM MST","8",,,"73","80","40","13","14","-2","43","14","9",,,,"11","10","0","39","2008, 2011","2001","24"
"Hams Fork","509	","Wyoming","SNOTEL","Lincoln","7840","42.146","-110.67833","140401070504	","December 9, 2021, end of day ","12-10-2021, 12:14 PM MST","0",,,"0","0","0","0","0","-12","0","12","1","Lowest",,,"10","12","0","17","2021","2010","12"
"Hand Creek","510	","Montana","SNOTEL","Flathead","5035","48.30754","-114.84075","170102100304	","December 9, 2021, end of day ","12-10-2021, 12:14 PM MST","6",,,"55","55","86","14","14","-5","20","17","3",,,,"11","11","2","24","2002","2010","21"
"Hannagan Meadows","511	","Arizona","SNOTEL","Greenlee","9020","33.65387","-109.30952","150601010107	","December 9, 2021, end of day ","12-10-2021, 12:14 PM MST",,,,,,,,,,,,,,,,"8","5","0","24","2012, 2014, 2017","2004","20"
"Hansen Sawmill","512	","Wyoming","SNOTEL","Johnson","8360","44.25602","-106.97983","100902060101	","December 9, 2021, end of day ","12-10-2021, 12:14 PM MST","9",,,"90","90","50","25","27","-1","44","11","7",,,,"10","10","5","15","2004","2013","19"
"Happy Jack","969	","Arizona","SNOTEL","Coconino","7630","34.74598","-111.41207","150602020604	","December 9, 2021, end of day ","12-10-2021, 12:14 PM MST",,,,,,,,,,,,,,,,"4","2","0","15","2014, 2017, 2020, more","2004","20"
"Hardscrabble","896	","Utah","SNOTEL","Morgan","7250","40.86833","-111.71865","160201020105	","December 9, 2021, end of day ","12-10-2021, 12:14 PM MST","11",,,"73","69","100","19","18","-5","41","11","7",,,,"15","16","2","33","2012","2004","18"
"Harris Flat","514	","Utah","SNOTEL","Kane","7792","37.48997","-112.57602","160300010104	","December 9, 2021, end of day ","12-10-2021, 12:14 PM MST","3",,,"60","150","100","10","10","1","61","8","11",,,,"5","2","0","23","2015, 2016, 2017, more","2019","19"
"Hart Mountain AM","1218	","Oregon","SNOLITE","Lake","6480","42.47972","-119.71917","171200080501	","December 9, 2021, end of day ","12-10-2021, 12:14 PM MST","0",,,"0","0",,"0","0","-2","33","7","1","Lowest",,,"2","2","0","6","2014, 2020, 2021, more","2019","10"
"Harts Pass","515	","Washington","SNOTEL","Okanogan","6490","48.72047","-120.6586","171100050501	","December 9, 2021, end of day ","12-10-2021, 12:14 PM MST","50",,,"116","114","100","45","46","6","67","8","15",,,,"43","44","9","82","2002","2015","22"
"Hawkins Lake","516	","Montana","SNOTEL","Lincoln","6450","48.9723","-115.95337","170101050201	","December 9, 2021, end of day ","12-10-2021, 12:14 PM MST",,,,,,,,,,,,,,,,"27","26","13","44","2002","1998, 2012","24"
"Hawley Lake","1271	","Arizona","SNOTEL","Apache","8300","33.97142","-109.76528","150601020106	","December 9, 2021, end of day ","12-10-2021, 12:14 PM MST","1",,,"17","17","50","2","2","-5","17","6","2","2nd Lowest",,,"6","6","0","14","2017","2019","7"
"Hayden Fork","517	","Utah","SNOTEL","Summit","9130","40.79669","-110.88472","160101010101	","December 9, 2021, end of day ","12-10-2021, 12:14 PM MST","13",,,"81","93","100","24","25","-1","45","13","6",,,,"16","14","10","29","2009","2004","23"
"Hayden Pass","1102	","Colorado","SNOTEL","Saguache","10720","38.29326","-105.8505","130100030301	","December 9, 2021, end of day ","12-10-2021, 12:14 PM MST","2",,,"15","15","40","3","4","-11","14","13","2","2nd Lowest",,,"13","13","1","30","2010","2011","15"
"Heavenly Valley","518	","California","SNOTEL","El Dorado","8534","38.92431","-119.91641","160501010302	","December 9, 2021, end of day ","12-10-2021, 12:14 PM MST","12",,,"75","100","40","15","15","0","50","12","9",,,,"16","12","0","40","2008","2001","23"
"Heber","519	","Arizona","SNOTEL","Coconino","7640","34.31202","-110.75431","150200100201	","December 9, 2021, end of day ","12-10-2021, 12:14 PM MST",,,,,,,,,,,,,,,,"3","0","0","17","2015, 2017, 2020, more","2009","16"
"Hedrick Lake","1A14P	","British Columbia","Cooperator Snow Sensors","	","3668","54.1","-121","	","December 9, 2021, end of day ","12-10-2021, 12:14 PM MST",,,,,,,,,,,,,,,,"33","32","0","100","2007, 2009","2008","19"
"Heen Latinee","1270	","Alaska","SNOTEL","Juneau","2065","58.69652","-134.86448","190103010401	","December 9, 2021, end of day ","12-10-2021, 12:14 PM MST","46",,,"230","242","100","73","82","27","100","1","7","Highest",,,"20","19","1","46","2018","2021","7"
"Hemlock Butte","520	","Idaho","SNOTEL","Clearwater","5810","46.48111","-115.63361","170603070601	","December 9, 2021, end of day ","12-10-2021, 12:14 PM MST",,,,,,,,,,,,,,,,"35","36","17","61","2002","2001","21"
"Henrys Fork","1193	","Utah","SNOLITE","Summit","10182","40.86313","-110.38145","140401060201	","December 9, 2021, end of day ","12-10-2021, 12:14 PM MST","11",,,"69","69","100","18","18","-5","11","9","1","Lowest",,,"16","16","11","24","2020, 2021","2019","10"
"Hewinta","521	","Utah","SNOTEL","Summit","9500","40.95009","-110.48419","140401070203	","December 9, 2021, end of day ","12-10-2021, 12:14 PM MST","10",,,"77","83","100","23","23","-2","32","16","4",,,,"13","12","6","23","2007","2001","23"
"Hickerson Park","522	","Utah","SNOTEL","Daggett","9122","40.90663","-109.96287","140401060501	","December 9, 2021, end of day ","12-10-2021, 12:14 PM MST","9",,,"82","75","100","23","24","-3","35","14","7",,,,"11","12","2","24","2007","2019","21"
"Hidden Lake","988	","Idaho","SNOTEL","Boundary","5040","48.8937","-116.75748","170101040502	","December 9, 2021, end of day ","12-10-2021, 12:14 PM MST",,,,,,,,,,,,,,,,"34","36","12","49","2008","2001, 2004","21"
"High Lonesome","1187	","Colorado","SNOTEL","Grand","10620","40.03592","-105.75471","140100010205	","December 9, 2021, end of day ","12-10-2021, 12:14 PM MST","21",,,"95","100","100","30","30","0","50","5","4",,,,"22","21","13","29","2017","2018","9"
"High Ridge","523	","Oregon","SNOTEL","Umatilla","4920","45.69682","-118.10657","170701030103	","December 9, 2021, end of day ","12-10-2021, 12:14 PM MST","11",,,"69","79","100","14","14","-3","35","12","6",,,,"16","14","4","30","2014","2006","18"
"Hilts Creek","524	","Idaho","SNOTEL","Custer","8000","44.01897","-113.4723","170402170401	","December 9, 2021, end of day ","12-10-2021, 12:14 PM MST","3",,,"23","25","38","6","6","-9","0","18","1","Lowest",,,"13","12","3","30","2021","2012","18"
"Hobble Creek","1223	","Utah","SNOTEL","Utah","7377","40.18538","-111.35971","160202020304	","December 9, 2021, end of day ","12-10-2021, 12:14 PM MST","12",,,"109","120","100","27","31","2","56","5","6",,,,"11","10","2","21","2020","2018","10"
"Hobbs Park","525	","Wyoming","SNOTEL","Fremont","10100","42.86984","-109.09455","100800030207	","December 9, 2021, end of day ","12-10-2021, 12:14 PM MST","16",,,"80","80","76","23","24","-4","35","12","6",,,,"20","20","12","33","2006, 2014, 2020","2017","18"
"Hogg Pass","526	","Oregon","SNOTEL","Linn","4790","44.42042","-121.85655","170900040201	","December 9, 2021, end of day ","12-10-2021, 12:14 PM MST","7",,,"39","44","78","9","8","-9","21","16","5",,,,"18","16","0","42","2014, 2015","2005","20"
"Hole-in-Mountain","527	","Nevada","SNOTEL","Elko","8163","40.94168","-115.0954","160600071602	","December 9, 2021, end of day ","12-10-2021, 12:14 PM MST",,,,,,,,,,,,,,,,"13","13","3","27","2008","2004","19"
"Hole-in-Rock","528	","Utah","SNOTEL","Summit","9168","40.92167","-110.18623","140401060205	","December 9, 2021, end of day ","12-10-2021, 12:14 PM MST","6",,,"50","55","86","16","16","-5","10","19","3",,,,"12","11","5","23","2007, 2014","2019","21"
"Holland Meadows","529	","Oregon","SNOTEL","Lane","4930","43.66917","-122.56877","170900020201	","December 9, 2021, end of day ","12-10-2021, 12:14 PM MST","5",,,"50","71","100","8","8","-2","44","10","7",,,,"10","7","0","31","2008, 2014, 2015","2009","17"
"Hood River 0.8 SW","ORHR0007	","Oregon","ACIS","Hood River","527","45.7003","-121.5321","170701051106	","December 9, 2021, end of day ","12-10-2021, 12:14 PM MST",,,,,,,,,,,,,,,,"7","7","0","14","2018","2016","2"
"Hood River Exp Stn","354003	","Oregon","ACIS","Hood River","500","45.6847","-121.5175","170701050703	","December 9, 2021, end of day ","12-10-2021, 12:14 PM MST",,,,,,,,,,,,,,,,"1","0","0","31","2010, 2018, 2019, more","1919","85"
